[{"WMO":"010010","Name":"JAN MAYEN","Lat":70.94,"Lon":-8.668,"Elev":9.0},{"WMO":"010020","Name":"VERLEGENHUKEN","Lat":80.059,"Lon":16.25,"Elev":7.0},{"WMO":"010030","Name":"HORNSUND","Lat":77.0,"Lon":15.5,"Elev":12.0},{"WMO":"010060","Name":"EDGEOYA","Lat":78.251,"Lon":22.823,"Elev":14.0},{"WMO":"010070","Name":"NY-ALESUND","Lat":78.9228,"Lon":11.9331,"Elev":8.0},{"WMO":"010080","Name":"SVALBARD","Lat":78.246,"Lon":15.466,"Elev":27.0},{"WMO":"010091","Name":"KARL XII OYA","Lat":80.653,"Lon":25.008,"Elev":5.0},{"WMO":"010100","Name":"ANDOYA","Lat":69.293,"Lon":16.144,"Elev":13.0},{"WMO":"010111","Name":"KVITOYA","Lat":80.103,"Lon":31.459,"Elev":10.0},{"WMO":"010150","Name":"HEKKINGEN FYR","Lat":69.601,"Lon":17.831,"Elev":14.0},{"WMO":"010160","Name":"KONGSOYA","Lat":78.933,"Lon":28.9,"Elev":20.0},{"WMO":"010170","Name":"AKSELOYA","Lat":77.689,"Lon":14.784,"Elev":6.0},{"WMO":"010200","Name":"SORKAPPOYA","Lat":76.483,"Lon":16.55,"Elev":10.0},{"WMO":"010230","Name":"BARDUFOSS","Lat":69.056,"Lon":18.54,"Elev":77.0},{"WMO":"010241","Name":"PYRAMIDEN","Lat":78.656,"Lon":16.36,"Elev":20.0},{"WMO":"010250","Name":"TROMSO AP","Lat":69.683,"Lon":18.919,"Elev":9.0},{"WMO":"010260","Name":"TROMSO","Lat":69.6538,"Lon":18.9367,"Elev":115.0},{"WMO":"010270","Name":"TROMSO-HOLT","Lat":69.65,"Lon":18.9,"Elev":20.0},{"WMO":"010280","Name":"BJORNOYA","Lat":74.504,"Lon":19.001,"Elev":18.0},{"WMO":"010330","Name":"TORSVAG FYR","Lat":70.246,"Lon":19.5,"Elev":24.0},{"WMO":"010370","Name":"SKIBOTN","Lat":69.388,"Lon":20.282,"Elev":20.0},{"WMO":"010421","Name":"HASVIK-SLUSKFJELLET","Lat":70.605,"Lon":22.443,"Elev":438.0},{"WMO":"010440","Name":"HASVIK","Lat":70.487,"Lon":22.14,"Elev":6.0},{"WMO":"010451","Name":"NORDSTRAUM I KVAENANGEN","Lat":69.836,"Lon":21.8959,"Elev":6.0},{"WMO":"010460","Name":"SORKJOSEN","Lat":69.787,"Lon":20.959,"Elev":5.0},{"WMO":"010470","Name":"KAUTOKEINO","Lat":68.997,"Lon":23.033,"Elev":307.0},{"WMO":"010490","Name":"ALTA","Lat":69.976,"Lon":23.372,"Elev":3.0},{"WMO":"010520","Name":"HAMMERFEST","Lat":70.683,"Lon":23.683,"Elev":81.0},{"WMO":"010550","Name":"FRUHOLMEN FYR","Lat":71.093,"Lon":23.982,"Elev":14.0},{"WMO":"010580","Name":"SUOLOVUOPMI LULIT","Lat":69.579,"Lon":23.534,"Elev":381.0},{"WMO":"010590","Name":"BANAK LAKSELV","Lat":70.069,"Lon":24.973,"Elev":8.0},{"WMO":"010620","Name":"HOPEN","Lat":76.509,"Lon":25.013,"Elev":10.0},{"WMO":"010650","Name":"KARASJOK","Lat":69.4636,"Lon":25.5026,"Elev":133.0},{"WMO":"010680","Name":"HONNINGSVAG VALAN","Lat":71.011,"Lon":25.978,"Elev":14.0},{"WMO":"010740","Name":"MEHAMN AP","Lat":71.033,"Lon":27.833,"Elev":13.0},{"WMO":"010761","Name":"TANABRU","Lat":70.2123,"Lon":28.1593,"Elev":32.0},{"WMO":"010780","Name":"SLETTNES FYR","Lat":71.089,"Lon":28.217,"Elev":10.0},{"WMO":"010820","Name":"NYRUD","Lat":69.1475,"Lon":29.2427,"Elev":55.0},{"WMO":"010830","Name":"BERLEVAG","Lat":70.867,"Lon":29.033,"Elev":13.0},{"WMO":"010840","Name":"PASVIK","Lat":69.455,"Lon":30.041,"Elev":27.0},{"WMO":"010860","Name":"BATSFJORD AP","Lat":70.6,"Lon":29.693,"Elev":149.0},{"WMO":"010875","Name":"HEIMDAL OIL PLATFORM","Lat":59.567,"Lon":2.217,"Elev":90.0},{"WMO":"010876","Name":"NORNE OIL PLATFORM","Lat":66.017,"Lon":8.083,"Elev":90.0},{"WMO":"010877","Name":"TROLL A OIL PLATFORM","Lat":60.633,"Lon":3.717,"Elev":90.0},{"WMO":"010878","Name":"SNORRE A OIL PLATFORM","Lat":61.45,"Lon":2.133,"Elev":90.0},{"WMO":"010879","Name":"SNORRE B OIL PLATFORM","Lat":61.533,"Lon":2.2,"Elev":90.0},{"WMO":"010880","Name":"VADSO","Lat":70.065,"Lon":29.835,"Elev":39.0},{"WMO":"010886","Name":"SLEIPNER A OIL PLATFORM","Lat":58.367,"Lon":1.9,"Elev":30.0},{"WMO":"010887","Name":"TROLL C OIL PLATFORM","Lat":60.886,"Lon":3.61,"Elev":20.0},{"WMO":"010890","Name":"HOYBUKTMOEN KIRKENES","Lat":69.726,"Lon":29.893,"Elev":86.0},{"WMO":"010920","Name":"MAKKAUR FYR","Lat":70.707,"Lon":30.079,"Elev":9.0},{"WMO":"010980","Name":"VARDO","Lat":70.371,"Lon":31.096,"Elev":15.0},{"WMO":"010990","Name":"VARDO AP SVARTNES","Lat":70.355,"Lon":31.045,"Elev":13.0},{"WMO":"011020","Name":"SKLINNA FYR","Lat":65.202,"Lon":10.996,"Elev":16.0},{"WMO":"011025","Name":"HEIDRUN","Lat":65.333,"Lon":7.317,"Elev":80.0},{"WMO":"011050","Name":"ROTVAER","Lat":68.368,"Lon":15.943,"Elev":8.0},{"WMO":"011070","Name":"ROST","Lat":67.527,"Lon":12.104,"Elev":4.0},{"WMO":"011080","Name":"VEGA-VALLSJO","Lat":65.7,"Lon":11.85,"Elev":9.0},{"WMO":"011120","Name":"BRONNOY","Lat":65.457,"Lon":12.218,"Elev":8.0},{"WMO":"011140","Name":"REIPA","Lat":66.9033,"Lon":13.6458,"Elev":8.0},{"WMO":"011150","Name":"MYKEN","Lat":66.763,"Lon":12.486,"Elev":13.0},{"WMO":"011160","Name":"STOKKA","Lat":65.961,"Lon":12.471,"Elev":17.0},{"WMO":"011170","Name":"TJOTTA","Lat":65.817,"Lon":12.417,"Elev":21.0},{"WMO":"011210","Name":"SOLVAER III","Lat":66.371,"Lon":12.611,"Elev":10.0},{"WMO":"011220","Name":"MOSJOEN KJAERSTAD","Lat":65.784,"Lon":13.218,"Elev":72.0},{"WMO":"011240","Name":"SNASA","Lat":64.1586,"Lon":12.4692,"Elev":195.0},{"WMO":"011320","Name":"MAJAVATN V","Lat":65.1661,"Lon":13.3667,"Elev":319.0},{"WMO":"011331","Name":"LAKSFORS","Lat":65.6214,"Lon":13.2892,"Elev":50.0},{"WMO":"011350","Name":"SELJELIA","Lat":66.117,"Lon":13.583,"Elev":123.0},{"WMO":"011391","Name":"VAEROY HELIPORT","Lat":67.6548,"Lon":12.7256,"Elev":4.0},{"WMO":"011411","Name":"LEKNES AP","Lat":68.155,"Lon":13.615,"Elev":26.0},{"WMO":"011430","Name":"DRAG-AJLUOKTA","Lat":68.047,"Lon":16.084,"Elev":19.0},{"WMO":"011440","Name":"HELLIGVAER","Lat":67.405,"Lon":13.896,"Elev":24.0},{"WMO":"011460","Name":"SKAMDAL","Lat":66.233,"Lon":13.883,"Elev":5.0},{"WMO":"011470","Name":"VARNTRESK","Lat":65.833,"Lon":14.183,"Elev":406.0},{"WMO":"011480","Name":"STORFORSHEI","Lat":66.383,"Lon":14.517,"Elev":110.0},{"WMO":"011491","Name":"RANA-BASMOEN","Lat":66.333,"Lon":14.1,"Elev":42.0},{"WMO":"011500","Name":"HJARTASEN","Lat":66.499,"Lon":14.954,"Elev":251.0},{"WMO":"011510","Name":"MO I RANA","Lat":66.364,"Lon":14.301,"Elev":70.0},{"WMO":"011520","Name":"BODO","Lat":67.267,"Lon":14.359,"Elev":13.0},{"WMO":"011560","Name":"BO I VESTERALEN","Lat":68.607,"Lon":14.433,"Elev":8.0},{"WMO":"011580","Name":"SETSA","Lat":67.167,"Lon":15.483,"Elev":8.0},{"WMO":"011600","Name":"SKROVA FYR","Lat":68.153,"Lon":14.649,"Elev":11.0},{"WMO":"011610","Name":"SVOLVAER HELLE","Lat":68.25,"Lon":14.667,"Elev":9.0},{"WMO":"011620","Name":"STORKMARKNES SKAGEN","Lat":68.583,"Lon":15.017,"Elev":3.0},{"WMO":"011670","Name":"SORTLAND","Lat":68.7,"Lon":15.417,"Elev":3.0},{"WMO":"011691","Name":"SALTDAL-NORDNES","Lat":66.9369,"Lon":15.3155,"Elev":37.0},{"WMO":"011800","Name":"HARSTAD","Lat":68.802,"Lon":16.537,"Elev":45.0},{"WMO":"011830","Name":"EVENES HARSTAD/NARVIK","Lat":68.491,"Lon":16.678,"Elev":26.0},{"WMO":"011920","Name":"STRAUMSNES","Lat":68.417,"Lon":17.65,"Elev":200.0},{"WMO":"011931","Name":"NARVIK AP","Lat":68.44,"Lon":17.389,"Elev":29.0},{"WMO":"011980","Name":"DIVIDALEN II","Lat":68.782,"Lon":19.702,"Elev":204.0},{"WMO":"011990","Name":"SIHCCAJAVRI","Lat":68.755,"Lon":23.539,"Elev":382.0},{"WMO":"012030","Name":"KRAKENES FYR","Lat":62.0342,"Lon":4.9862,"Elev":41.0},{"WMO":"012050","Name":"SVINOY FYR","Lat":62.329,"Lon":5.268,"Elev":37.0},{"WMO":"012090","Name":"ORSTA-VOLDA HOVDEN","Lat":62.183,"Lon":6.067,"Elev":74.0},{"WMO":"012100","Name":"VIGRA ALESUND","Lat":62.56,"Lon":6.11,"Elev":21.0},{"WMO":"012120","Name":"ONA II","Lat":62.8586,"Lon":6.5378,"Elev":15.0},{"WMO":"012140","Name":"REKDAL","Lat":62.6511,"Lon":6.755,"Elev":43.0},{"WMO":"012170","Name":"MOLDE ARO","Lat":62.745,"Lon":7.263,"Elev":3.0},{"WMO":"012180","Name":"TAFJORD","Lat":62.2303,"Lon":7.4217,"Elev":17.0},{"WMO":"012201","Name":"MANNEN","Lat":62.456,"Lon":7.77,"Elev":1294.0},{"WMO":"012210","Name":"TAGDALEN","Lat":63.056,"Lon":9.072,"Elev":415.0},{"WMO":"012230","Name":"KVERNBERGET KRISTIANSUND","Lat":63.1094,"Lon":7.8158,"Elev":62.0},{"WMO":"012240","Name":"AALESUND","Lat":62.47,"Lon":6.211,"Elev":15.0},{"WMO":"012250","Name":"VEIHOLMEN","Lat":63.517,"Lon":7.95,"Elev":5.0},{"WMO":"012271","Name":"INNERDALEN","Lat":62.722,"Lon":8.775,"Elev":405.0},{"WMO":"012280","Name":"SULA","Lat":63.847,"Lon":8.467,"Elev":6.0},{"WMO":"012300","Name":"BJORLI","Lat":62.267,"Lon":8.2,"Elev":579.0},{"WMO":"012320","Name":"VINJEORA II","Lat":63.2,"Lon":9.0,"Elev":67.0},{"WMO":"012330","Name":"DOMBAAS","Lat":62.072,"Lon":9.116,"Elev":638.0},{"WMO":"012340","Name":"ORKDAL-THAMSHAMN","Lat":63.3153,"Lon":9.8494,"Elev":4.0},{"WMO":"012370","Name":"HITRA","Lat":63.5187,"Lon":9.1125,"Elev":13.0},{"WMO":"012380","Name":"FOKSTUA II","Lat":62.1131,"Lon":9.2861,"Elev":974.0},{"WMO":"012390","Name":"HJERKINN II","Lat":62.221,"Lon":9.542,"Elev":1012.0},{"WMO":"012400","Name":"HALTEN FYR","Lat":64.173,"Lon":9.406,"Elev":16.0},{"WMO":"012410","Name":"ORLAND","Lat":63.699,"Lon":9.604,"Elev":9.0},{"WMO":"012420","Name":"AFJORD II","Lat":63.966,"Lon":10.216,"Elev":30.0},{"WMO":"012450","Name":"OPPDAL-SETER","Lat":62.604,"Lon":9.667,"Elev":606.0},{"WMO":"012501","Name":"FOLLDAL-FREDHEIM","Lat":62.128,"Lon":9.995,"Elev":694.0},{"WMO":"012530","Name":"SOKNEDAL","Lat":62.953,"Lon":10.179,"Elev":299.0},{"WMO":"012540","Name":"KOTSOY","Lat":62.976,"Lon":10.561,"Elev":127.0},{"WMO":"012570","Name":"TRONDHEIM VOLL","Lat":63.4106,"Lon":10.4539,"Elev":132.0},{"WMO":"012590","Name":"BUHOLMRASA LH","Lat":64.4,"Lon":10.45,"Elev":18.0},{"WMO":"012620","Name":"NORDOYAN FYR","Lat":64.799,"Lon":10.547,"Elev":33.0},{"WMO":"012650","Name":"TYNSET-HANSMOEN","Lat":62.269,"Lon":10.732,"Elev":482.0},{"WMO":"012700","Name":"KVITHAMAR","Lat":63.483,"Lon":10.883,"Elev":40.0},{"WMO":"012710","Name":"TRONDHEIM VAERNES","Lat":63.459,"Lon":10.935,"Elev":17.0},{"WMO":"012720","Name":"FROSTA","Lat":63.567,"Lon":10.7,"Elev":70.0},{"WMO":"012730","Name":"SELBU","Lat":63.225,"Lon":11.008,"Elev":160.0},{"WMO":"012770","Name":"STEINKJER","Lat":64.022,"Lon":11.451,"Elev":80.0},{"WMO":"012810","Name":"NAMSSKOGAN","Lat":64.7419,"Lon":12.8458,"Elev":140.0},{"WMO":"012820","Name":"RORVIK RYUM","Lat":64.837,"Lon":11.143,"Elev":5.0},{"WMO":"012870","Name":"SOLENDET","Lat":62.68,"Lon":11.817,"Elev":747.0},{"WMO":"012880","Name":"ROROS","Lat":62.577,"Lon":11.352,"Elev":630.0},{"WMO":"012900","Name":"NAMSOS","Lat":64.471,"Lon":11.571,"Elev":2.0},{"WMO":"012910","Name":"GARTLAND","Lat":64.531,"Lon":12.384,"Elev":95.0},{"WMO":"012930","Name":"MERAKER-EGGE","Lat":63.411,"Lon":11.727,"Elev":171.0},{"WMO":"013000","Name":"GULLFAKS C","Lat":61.204,"Lon":2.269,"Elev":78.0},{"WMO":"013040","Name":"YTTEROYANE FYR","Lat":61.572,"Lon":4.682,"Elev":25.0},{"WMO":"013070","Name":"FEDJE","Lat":60.753,"Lon":4.711,"Elev":20.0},{"WMO":"013080","Name":"FURUNESET","Lat":61.3,"Lon":5.05,"Elev":7.0},{"WMO":"013100","Name":"FLORO AP","Lat":61.584,"Lon":5.025,"Elev":11.0},{"WMO":"013110","Name":"BERGEN FLESLAND","Lat":60.293,"Lon":5.218,"Elev":52.0},{"WMO":"013140","Name":"FOSSMARK","Lat":60.521,"Lon":5.725,"Elev":10.0},{"WMO":"013150","Name":"EVANGER","Lat":60.647,"Lon":6.111,"Elev":17.0},{"WMO":"013170","Name":"BERGEN FLORIDA","Lat":60.383,"Lon":5.333,"Elev":36.0},{"WMO":"013191","Name":"TAKLE","Lat":61.0273,"Lon":5.3814,"Elev":38.0},{"WMO":"013200","Name":"SANDANE ANDA","Lat":61.833,"Lon":6.117,"Elev":60.0},{"WMO":"013210","Name":"STRYN","Lat":61.916,"Lon":6.558,"Elev":208.0},{"WMO":"013230","Name":"BRINGELAND","Lat":61.391,"Lon":5.76,"Elev":319.0},{"WMO":"013260","Name":"MODALEN III","Lat":60.856,"Lon":5.973,"Elev":125.0},{"WMO":"013270","Name":"KVAMSKOGEN-JONSHOGDI","Lat":60.3886,"Lon":5.9639,"Elev":455.0},{"WMO":"013290","Name":"KVAMSOY","Lat":60.364,"Lon":6.279,"Elev":50.0},{"WMO":"013320","Name":"FJAERLAND BREMUSEET","Lat":61.4231,"Lon":6.7642,"Elev":3.0},{"WMO":"013361","Name":"BULKEN","Lat":60.646,"Lon":6.222,"Elev":328.0},{"WMO":"013370","Name":"VOSSEVANGEN","Lat":60.625,"Lon":6.4261,"Elev":55.0},{"WMO":"013380","Name":"VANGSNES","Lat":61.171,"Lon":6.647,"Elev":51.0},{"WMO":"013400","Name":"FET I EIDFJORD","Lat":60.4083,"Lon":7.2797,"Elev":737.0},{"WMO":"013420","Name":"ULLENSVANG","Lat":60.317,"Lon":6.65,"Elev":12.0},{"WMO":"013440","Name":"MJOLFJELL","Lat":60.702,"Lon":6.937,"Elev":695.0},{"WMO":"013461","Name":"MIDTSTOVA","Lat":60.657,"Lon":7.277,"Elev":1162.0},{"WMO":"013470","Name":"SOGNDAL HAUKASEN","Lat":61.156,"Lon":7.137,"Elev":511.0},{"WMO":"013500","Name":"FINSEVATN","Lat":60.593,"Lon":7.524,"Elev":1208.0},{"WMO":"013520","Name":"SANDHAUG","Lat":60.183,"Lon":7.483,"Elev":1250.0},{"WMO":"013550","Name":"LAERDAL IV","Lat":61.103,"Lon":7.503,"Elev":5.0},{"WMO":"013571","Name":"HOLLEKOLTEN","Lat":60.871,"Lon":8.518,"Elev":807.0},{"WMO":"013580","Name":"HEMSEDAL II","Lat":60.855,"Lon":8.593,"Elev":604.0},{"WMO":"013590","Name":"GEILO-OLDEBRATEN","Lat":60.53,"Lon":8.195,"Elev":773.0},{"WMO":"013600","Name":"BRATA-SLETTOM","Lat":61.896,"Lon":7.896,"Elev":664.0},{"WMO":"013610","Name":"GROTLI III","Lat":62.016,"Lon":7.664,"Elev":872.0},{"WMO":"013620","Name":"JUVVASSHOE","Lat":61.667,"Lon":8.367,"Elev":1894.0},{"WMO":"013640","Name":"FILEFJELL","Lat":61.1778,"Lon":8.1125,"Elev":955.0},{"WMO":"013650","Name":"BEITOSTOLEN II","Lat":61.251,"Lon":8.923,"Elev":965.0},{"WMO":"013660","Name":"SOGNEFJELL","Lat":61.564,"Lon":7.998,"Elev":1413.0},{"WMO":"013670","Name":"FAGERNES","Lat":60.9786,"Lon":9.2239,"Elev":365.0},{"WMO":"013680","Name":"LEIRIN","Lat":61.016,"Lon":9.288,"Elev":822.0},{"WMO":"013700","Name":"SKABU","Lat":61.517,"Lon":9.4,"Elev":928.0},{"WMO":"013710","Name":"LOKEN I VOLBU","Lat":61.117,"Lon":9.067,"Elev":521.0},{"WMO":"013730","Name":"NESBYEN-TODOKK","Lat":60.567,"Lon":9.133,"Elev":166.0},{"WMO":"013741","Name":"VEST-TORPA II","Lat":60.934,"Lon":10.036,"Elev":542.0},{"WMO":"013750","Name":"KVITFJELL","Lat":61.465,"Lon":10.127,"Elev":1028.0},{"WMO":"013755","Name":"GULLFAX PLATFORM","Lat":61.033,"Lon":2.033,"Elev":10.0},{"WMO":"013760","Name":"GULSVIK II","Lat":60.383,"Lon":9.6,"Elev":142.0},{"WMO":"013780","Name":"LILLEHAMMER-SAETHERENGEN","Lat":61.093,"Lon":10.477,"Elev":239.0},{"WMO":"013800","Name":"VENABU","Lat":61.651,"Lon":10.109,"Elev":930.0},{"WMO":"013810","Name":"APELSVOLL","Lat":60.7,"Lon":10.867,"Elev":264.0},{"WMO":"013820","Name":"KISE","Lat":60.773,"Lon":10.806,"Elev":128.0},{"WMO":"013830","Name":"EVENSTAD-DIH","Lat":61.425,"Lon":11.08,"Elev":255.0},{"WMO":"013840","Name":"OSLO GARDERMOEN","Lat":60.206,"Lon":11.08,"Elev":208.0},{"WMO":"013850","Name":"HAMER","Lat":60.818,"Lon":11.069,"Elev":222.0},{"WMO":"013860","Name":"HAMAR II","Lat":60.801,"Lon":11.098,"Elev":132.0},{"WMO":"013870","Name":"FAVANG","Lat":61.45,"Lon":10.183,"Elev":200.0},{"WMO":"013890","Name":"RENA","Lat":61.186,"Lon":11.371,"Elev":256.0},{"WMO":"013920","Name":"FLISA II","Lat":60.6139,"Lon":12.0122,"Elev":185.0},{"WMO":"013930","Name":"DREVSJO","Lat":61.89,"Lon":12.033,"Elev":674.0},{"WMO":"013970","Name":"TRYSIL VEGSTASJON","Lat":61.2942,"Lon":12.2717,"Elev":361.0},{"WMO":"014000","Name":"EKOFISK OIL PLATFORM","Lat":56.542,"Lon":3.224,"Elev":49.0},{"WMO":"014030","Name":"UTSIRA FYR","Lat":59.306,"Lon":4.872,"Elev":56.0},{"WMO":"014060","Name":"SLATTEROY FYR","Lat":59.908,"Lon":5.068,"Elev":16.0},{"WMO":"014080","Name":"KARMOY HAUGESUND","Lat":59.35,"Lon":5.198,"Elev":26.0},{"WMO":"014110","Name":"KVITSOY NORDBO","Lat":59.0705,"Lon":5.4121,"Elev":22.0},{"WMO":"014120","Name":"OBRESTAD","Lat":58.6585,"Lon":5.5546,"Elev":26.0},{"WMO":"014130","Name":"SAERHEIM","Lat":58.75,"Lon":5.65,"Elev":87.0},{"WMO":"014140","Name":"ROVER","Lat":59.433,"Lon":5.067,"Elev":25.0},{"WMO":"014150","Name":"SOLA STAVANGER","Lat":58.884,"Lon":5.637,"Elev":9.0},{"WMO":"014160","Name":"STAVANGER VAALAND","Lat":58.9574,"Lon":5.7287,"Elev":72.0},{"WMO":"014170","Name":"NEDRE VATS","Lat":59.4928,"Lon":5.7208,"Elev":20.0},{"WMO":"014190","Name":"LIARVATN","Lat":59.0512,"Lon":6.1213,"Elev":300.0},{"WMO":"014220","Name":"FISTER SIGMUNDSTAD","Lat":59.1597,"Lon":6.0364,"Elev":25.0},{"WMO":"014240","Name":"SAUDA","Lat":59.649,"Lon":6.363,"Elev":6.0},{"WMO":"014250","Name":"EIK HOVE","Lat":58.508,"Lon":6.511,"Elev":66.0},{"WMO":"014260","Name":"EIGEROYA","Lat":58.4352,"Lon":5.8718,"Elev":49.0},{"WMO":"014270","Name":"LISTA FYR","Lat":58.109,"Lon":6.5678,"Elev":14.0},{"WMO":"014281","Name":"ULA OIL PLATFORM","Lat":59.111,"Lon":2.846,"Elev":94.0},{"WMO":"014300","Name":"MANDAL II","Lat":58.0284,"Lon":7.4527,"Elev":138.0},{"WMO":"014310","Name":"SIRDAL-SINNES","Lat":58.923,"Lon":6.9096,"Elev":557.0},{"WMO":"014330","Name":"MIDTLAEGER","Lat":59.833,"Lon":6.983,"Elev":1081.0},{"WMO":"014340","Name":"VAAGSLI","Lat":59.7663,"Lon":7.365,"Elev":822.0},{"WMO":"014351","Name":"HAUKELISETER TESTFELT","Lat":59.8117,"Lon":7.2142,"Elev":990.0},{"WMO":"014360","Name":"LINDESNES FYR","Lat":57.983,"Lon":7.048,"Elev":13.0},{"WMO":"014400","Name":"BLASJO","Lat":59.333,"Lon":6.867,"Elev":1105.0},{"WMO":"014410","Name":"HOVDEN-LUNDANE","Lat":59.5767,"Lon":7.3897,"Elev":836.0},{"WMO":"014420","Name":"BYGLANDSFJORD","Lat":58.667,"Lon":7.8,"Elev":211.0},{"WMO":"014440","Name":"VALLE","Lat":59.2,"Lon":7.517,"Elev":302.0},{"WMO":"014451","Name":"DALEN","Lat":59.445,"Lon":8.005,"Elev":77.0},{"WMO":"014470","Name":"HOYDALSMO II","Lat":59.4969,"Lon":8.1992,"Elev":562.0},{"WMO":"014480","Name":"OKSOY FYR","Lat":58.073,"Lon":8.053,"Elev":8.0},{"WMO":"014490","Name":"GJERSTAD","Lat":58.867,"Lon":9.033,"Elev":32.0},{"WMO":"014500","Name":"MOSSTRAND II","Lat":59.839,"Lon":8.179,"Elev":977.0},{"WMO":"014520","Name":"KRISTIANSAND KJEVIK","Lat":58.204,"Lon":8.085,"Elev":17.0},{"WMO":"014530","Name":"HYNNEKLEIV","Lat":58.6,"Lon":8.417,"Elev":162.0},{"WMO":"014550","Name":"TVEITSUND","Lat":59.027,"Lon":8.521,"Elev":252.0},{"WMO":"014621","Name":"PORSGRUNN","Lat":59.0872,"Lon":9.6603,"Elev":100.0},{"WMO":"014631","Name":"AS","Lat":59.6606,"Lon":10.7819,"Elev":89.0},{"WMO":"014640","Name":"LANDVIK","Lat":58.333,"Lon":8.517,"Elev":6.0},{"WMO":"014650","Name":"TORUNGEN FYR","Lat":58.399,"Lon":8.789,"Elev":15.0},{"WMO":"014661","Name":"KJELLER AP","Lat":59.971,"Lon":11.038,"Elev":108.0},{"WMO":"014670","Name":"LYNGOR FYR","Lat":58.636,"Lon":9.148,"Elev":5.0},{"WMO":"014680","Name":"KONGSVINGER","Lat":60.1903,"Lon":12.0067,"Elev":148.0},{"WMO":"014690","Name":"HONEFOSS-HOYBY","Lat":60.166,"Lon":10.2463,"Elev":140.0},{"WMO":"014700","Name":"GVARV","Lat":59.383,"Lon":9.201,"Elev":93.0},{"WMO":"014710","Name":"VEGGLI II","Lat":60.0435,"Lon":9.1468,"Elev":275.0},{"WMO":"014730","Name":"KONGSBERG BRANNSTASJON","Lat":59.6244,"Lon":9.6375,"Elev":173.0},{"WMO":"014760","Name":"JOMFRULAND FYR","Lat":58.857,"Lon":9.576,"Elev":5.0},{"WMO":"014770","Name":"KONNERUD","Lat":59.7128,"Lon":10.1458,"Elev":193.0},{"WMO":"014780","Name":"SVENNER FYR","Lat":58.969,"Lon":10.148,"Elev":15.0},{"WMO":"014800","Name":"DRAMMEN BERSKOG","Lat":59.7536,"Lon":10.1236,"Elev":8.0},{"WMO":"014810","Name":"MELSOM","Lat":59.23,"Lon":10.348,"Elev":26.0},{"WMO":"014820","Name":"FERDER FYR","Lat":59.027,"Lon":10.524,"Elev":8.0},{"WMO":"014830","Name":"TORP","Lat":59.184,"Lon":10.255,"Elev":88.0},{"WMO":"014840","Name":"AURSKOG","Lat":59.9119,"Lon":11.58,"Elev":128.0},{"WMO":"014843","Name":"OSEBERG PLATFORM","Lat":60.491,"Lon":2.826,"Elev":15.0},{"WMO":"014850","Name":"DANDE-GALLEBERG","Lat":59.617,"Lon":10.217,"Elev":60.0},{"WMO":"014861","Name":"ASKER","Lat":59.856,"Lon":10.434,"Elev":163.0},{"WMO":"014871","Name":"OSLO ALNA","Lat":59.933,"Lon":10.833,"Elev":90.0},{"WMO":"014880","Name":"HAKADAL","Lat":60.1172,"Lon":10.8289,"Elev":170.0},{"WMO":"014881","Name":"STATFJORD B OIL PLATFORM","Lat":61.206,"Lon":1.829,"Elev":142.0},{"WMO":"014890","Name":"BJORNHOLT","Lat":60.05,"Lon":10.683,"Elev":360.0},{"WMO":"014900","Name":"TRYVANNSHOGDA","Lat":59.984,"Lon":10.669,"Elev":528.0},{"WMO":"014920","Name":"OSLO BLINDERN","Lat":59.9422,"Lon":10.72,"Elev":97.0},{"WMO":"014931","Name":"SARPSBORG","Lat":59.286,"Lon":11.115,"Elev":57.0},{"WMO":"014940","Name":"RYGGE MOSS","Lat":59.379,"Lon":10.786,"Elev":53.0},{"WMO":"014950","Name":"STROMTANGEN FYR","Lat":59.151,"Lon":10.829,"Elev":10.0},{"WMO":"020001","Name":"LJUNGBYHED","Lat":56.083,"Lon":13.213,"Elev":43.0},{"WMO":"020130","Name":"RITSEM","Lat":67.7269,"Lon":17.4711,"Elev":543.0},{"WMO":"020200","Name":"KATTERJAKK","Lat":68.42,"Lon":18.168,"Elev":517.0},{"WMO":"020240","Name":"STORA SJOFALLET","Lat":67.495,"Lon":18.291,"Elev":425.0},{"WMO":"020290","Name":"TARFALA","Lat":67.912,"Lon":18.61,"Elev":1146.0},{"WMO":"020310","Name":"RENSJON","Lat":68.073,"Lon":19.835,"Elev":493.0},{"WMO":"020360","Name":"NIKKALUOKTA","Lat":67.8527,"Lon":19.0212,"Elev":468.0},{"WMO":"020380","Name":"LATNIVAARA","Lat":67.2551,"Lon":20.2704,"Elev":453.0},{"WMO":"020440","Name":"KIRUNA","Lat":67.823,"Lon":20.34,"Elev":447.0},{"WMO":"020490","Name":"GALLIVARE LAPLAND","Lat":67.1407,"Lon":20.6413,"Elev":359.0},{"WMO":"020540","Name":"NEDRE SOPPERO","Lat":68.044,"Lon":21.755,"Elev":360.0},{"WMO":"020550","Name":"NAIMAKKA","Lat":68.6762,"Lon":21.5229,"Elev":402.0},{"WMO":"020640","Name":"SAITTAROVA","Lat":67.3363,"Lon":22.2288,"Elev":240.0},{"WMO":"020720","Name":"PARKALOMPOLO","Lat":67.7301,"Lon":22.8219,"Elev":313.0},{"WMO":"020810","Name":"KARESUANDO","Lat":68.4419,"Lon":22.4436,"Elev":332.0},{"WMO":"020860","Name":"LAINIO","Lat":67.761,"Lon":22.352,"Elev":317.0},{"WMO":"020950","Name":"PAJALA","Lat":67.2036,"Lon":23.3899,"Elev":164.0},{"WMO":"021010","Name":"HEMAVAN TARNABY","Lat":65.808,"Lon":15.085,"Elev":458.0},{"WMO":"021020","Name":"STEKENJOKK","Lat":65.0929,"Lon":14.5055,"Elev":1036.0},{"WMO":"021030","Name":"HEMAVAN-GIEREVARTO","Lat":65.7813,"Lon":15.0623,"Elev":793.0},{"WMO":"021080","Name":"KLIMPFJALL","Lat":65.067,"Lon":14.8,"Elev":593.0},{"WMO":"021100","Name":"GIELAS","Lat":65.327,"Lon":15.065,"Elev":577.0},{"WMO":"021190","Name":"KVIKKJOKK ARRENJARKA","Lat":66.883,"Lon":18.023,"Elev":320.0},{"WMO":"021210","Name":"MIERKENIS","Lat":66.6802,"Lon":16.1053,"Elev":615.0},{"WMO":"021240","Name":"ARJEPLOG","Lat":66.0513,"Lon":17.8396,"Elev":432.0},{"WMO":"021260","Name":"GUNNARN","Lat":65.0094,"Lon":17.6993,"Elev":251.0},{"WMO":"021300","Name":"LILLVIKEN-ROPARUDDEN V","Lat":66.486,"Lon":16.4173,"Elev":481.0},{"WMO":"021350","Name":"BURESJON","Lat":65.558,"Lon":17.855,"Elev":393.0},{"WMO":"021410","Name":"TJAKAAPE","Lat":66.3,"Lon":19.2,"Elev":582.0},{"WMO":"021460","Name":"VAJMAT","Lat":66.505,"Lon":19.675,"Elev":325.0},{"WMO":"021470","Name":"MALA-BRANNAN","Lat":65.1512,"Lon":18.5935,"Elev":363.0},{"WMO":"021490","Name":"ARVIDSJAUR","Lat":65.594,"Lon":19.264,"Elev":380.0},{"WMO":"021510","Name":"JOKKMOKK","Lat":66.496,"Lon":20.147,"Elev":275.0},{"WMO":"021540","Name":"VIDSEL","Lat":65.875,"Lon":20.15,"Elev":182.0},{"WMO":"021591","Name":"FALLFORS","Lat":65.12,"Lon":20.77,"Elev":195.0},{"WMO":"021610","Name":"NATTAVAARA","Lat":66.752,"Lon":20.928,"Elev":327.0},{"WMO":"021640","Name":"PALKEM","Lat":66.383,"Lon":21.633,"Elev":263.0},{"WMO":"021710","Name":"BODEN","Lat":65.815,"Lon":21.64,"Elev":25.0},{"WMO":"021730","Name":"ALVSBYN","Lat":65.6691,"Lon":21.062,"Elev":43.0},{"WMO":"021740","Name":"LAKATRASK","Lat":66.2789,"Lon":21.1285,"Elev":185.0},{"WMO":"021760","Name":"PITE-RONNSKAR","Lat":65.034,"Lon":21.561,"Elev":5.0},{"WMO":"021810","Name":"OVERKALIX-SVARTBYN","Lat":66.262,"Lon":22.843,"Elev":62.0},{"WMO":"021840","Name":"PAHAROVA","Lat":66.809,"Lon":22.331,"Elev":228.0},{"WMO":"021860","Name":"LULEA KALLAX","Lat":65.543,"Lon":22.119,"Elev":20.0},{"WMO":"021880","Name":"RODKALLEN","Lat":65.312,"Lon":22.371,"Elev":2.0},{"WMO":"021910","Name":"KALIX-STORON","Lat":65.697,"Lon":23.096,"Elev":4.0},{"WMO":"021970","Name":"HAPARANDA","Lat":65.824,"Lon":24.111,"Elev":16.0},{"WMO":"021990","Name":"YLINENJARVI","Lat":66.622,"Lon":23.463,"Elev":132.0},{"WMO":"022070","Name":"STORLIEN-STORVALLEN","Lat":63.283,"Lon":12.122,"Elev":583.0},{"WMO":"022090","Name":"SYLARNA","Lat":63.0438,"Lon":12.2748,"Elev":1030.0},{"WMO":"022100","Name":"BLAHAMMAREN","Lat":63.183,"Lon":12.167,"Elev":1090.0},{"WMO":"022160","Name":"MATTMAR V","Lat":63.3054,"Lon":13.8767,"Elev":360.0},{"WMO":"022170","Name":"ARE","Lat":63.3738,"Lon":13.1607,"Elev":403.0},{"WMO":"022190","Name":"GADDEDE 2","Lat":64.5044,"Lon":14.2207,"Elev":553.0},{"WMO":"022210","Name":"KORSVATTNET","Lat":63.839,"Lon":13.501,"Elev":717.0},{"WMO":"022220","Name":"GADDEDE 1","Lat":64.5,"Lon":14.167,"Elev":330.0},{"WMO":"022260","Name":"ARE OSTERSUND","Lat":63.197,"Lon":14.486,"Elev":376.0},{"WMO":"022300","Name":"GUBBHOGEN","Lat":64.2172,"Lon":15.5529,"Elev":310.0},{"WMO":"022310","Name":"FOLLINGE","Lat":63.6761,"Lon":14.6048,"Elev":362.0},{"WMO":"022330","Name":"SAXNAS V","Lat":64.9678,"Lon":15.3791,"Elev":545.0},{"WMO":"022340","Name":"STROMSUND","Lat":63.867,"Lon":15.583,"Elev":373.0},{"WMO":"022360","Name":"HALLHAXASEN","Lat":63.7685,"Lon":15.3279,"Elev":376.0},{"WMO":"022420","Name":"HOTING","Lat":64.088,"Lon":16.236,"Elev":241.0},{"WMO":"022430","Name":"JUNSELE","Lat":63.6839,"Lon":16.95,"Elev":219.0},{"WMO":"022450","Name":"VILHELMINA","Lat":64.58,"Lon":16.839,"Elev":349.0},{"WMO":"022470","Name":"KRANGEDE","Lat":63.1512,"Lon":16.1699,"Elev":184.0},{"WMO":"022520","Name":"IDVATTNET","Lat":64.45,"Lon":17.083,"Elev":353.0},{"WMO":"022540","Name":"ASELE","Lat":64.165,"Lon":17.315,"Elev":308.0},{"WMO":"022560","Name":"RISTRASK V","Lat":64.7343,"Lon":17.4034,"Elev":575.0},{"WMO":"022590","Name":"KRAMFORS HOGA KUSTEN","Lat":63.049,"Lon":17.769,"Elev":10.0},{"WMO":"022600","Name":"VASTMARKUM","Lat":63.1243,"Lon":18.2518,"Elev":143.0},{"WMO":"022610","Name":"LYCKSELE","Lat":64.5481,"Lon":18.713,"Elev":211.0},{"WMO":"022630","Name":"FREDRIKA","Lat":64.0744,"Lon":18.3619,"Elev":327.0},{"WMO":"022650","Name":"HEMLING","Lat":63.6503,"Lon":18.5466,"Elev":183.0},{"WMO":"022670","Name":"ORNSKOLDSVIK","Lat":63.412,"Lon":18.98,"Elev":108.0},{"WMO":"022690","Name":"SKAGSUDDE","Lat":63.1881,"Lon":19.0161,"Elev":9.0},{"WMO":"022710","Name":"NORSJO","Lat":64.9253,"Lon":19.3744,"Elev":310.0},{"WMO":"022820","Name":"PETISTRASK","Lat":64.5659,"Lon":19.6943,"Elev":258.0},{"WMO":"022840","Name":"JARNASKLUBB","Lat":63.435,"Lon":19.673,"Elev":6.0},{"WMO":"022860","Name":"UMEA","Lat":63.792,"Lon":20.283,"Elev":14.0},{"WMO":"022861","Name":"HELSINGE SODERHAMN","Lat":61.262,"Lon":17.098,"Elev":36.0},{"WMO":"022870","Name":"HOLMON","Lat":63.792,"Lon":20.861,"Elev":15.0},{"WMO":"022880","Name":"HOLMOGADDS FYR","Lat":63.594,"Lon":20.752,"Elev":6.0},{"WMO":"022920","Name":"HOKMARKSBERGET","Lat":64.4358,"Lon":21.28,"Elev":92.0},{"WMO":"022930","Name":"SKELLEFTEA","Lat":64.624,"Lon":21.072,"Elev":48.0},{"WMO":"022970","Name":"BJUROKLUBB","Lat":64.4799,"Lon":21.5754,"Elev":35.0},{"WMO":"023020","Name":"STORBO","Lat":61.8403,"Lon":12.288,"Elev":661.0},{"WMO":"023030","Name":"FLATRUET","Lat":62.7291,"Lon":12.7264,"Elev":932.0},{"WMO":"023060","Name":"RORBACKSNAS","Lat":61.133,"Lon":12.817,"Elev":465.0},{"WMO":"023070","Name":"IDRE FJALL","Lat":61.8886,"Lon":12.8521,"Elev":869.0},{"WMO":"023080","Name":"TANNAS","Lat":62.449,"Lon":12.668,"Elev":724.0},{"WMO":"023101","Name":"STORSJO KAPELL","Lat":62.8,"Lon":13.067,"Elev":583.0},{"WMO":"023110","Name":"HOGFJALLSHOTELLET","Lat":61.1583,"Lon":13.1138,"Elev":751.0},{"WMO":"023160","Name":"SARNA","Lat":61.691,"Lon":13.183,"Elev":427.0},{"WMO":"023170","Name":"DRAVAGEN","Lat":62.094,"Lon":13.609,"Elev":566.0},{"WMO":"023190","Name":"BORTNAN","Lat":62.7548,"Lon":13.8427,"Elev":467.0},{"WMO":"023210","Name":"ALVDALEN","Lat":61.2536,"Lon":14.0355,"Elev":253.0},{"WMO":"023250","Name":"KLOVSJOHOJDEN","Lat":62.4952,"Lon":14.1542,"Elev":803.0},{"WMO":"023270","Name":"HARJEDALEN SVEG","Lat":62.0462,"Lon":14.4069,"Elev":362.0},{"WMO":"023290","Name":"HAMRA","Lat":61.6599,"Lon":14.9918,"Elev":455.0},{"WMO":"023310","Name":"HUNGE","Lat":62.7504,"Lon":15.0845,"Elev":343.0},{"WMO":"023370","Name":"NORRBERG-NORRHOG V","Lat":62.2632,"Lon":15.6709,"Elev":320.0},{"WMO":"023380","Name":"EDSBYN","Lat":61.3607,"Lon":15.7144,"Elev":185.0},{"WMO":"023420","Name":"FRANSTA","Lat":62.517,"Lon":16.183,"Elev":105.0},{"WMO":"023430","Name":"TORPSHAMMAR","Lat":62.494,"Lon":16.277,"Elev":100.0},{"WMO":"023470","Name":"DELSBO","Lat":61.8264,"Lon":16.5385,"Elev":72.0},{"WMO":"023490","Name":"SILLRE","Lat":62.7628,"Lon":16.7392,"Elev":205.0},{"WMO":"023540","Name":"SUNDSVALL RASTA V","Lat":62.4306,"Lon":17.3447,"Elev":80.0},{"WMO":"023550","Name":"KUGGOREN","Lat":61.703,"Lon":17.522,"Elev":10.0},{"WMO":"023660","Name":"SUNDSVALL TIMRA","Lat":62.528,"Lon":17.444,"Elev":5.0},{"WMO":"023680","Name":"BRAMON","Lat":62.22,"Lon":17.739,"Elev":18.0},{"WMO":"023820","Name":"LUNGO","Lat":62.642,"Lon":18.09,"Elev":18.0},{"WMO":"024000","Name":"OSTMARK","Lat":60.35,"Lon":12.65,"Elev":310.0},{"WMO":"024030","Name":"NAVEN","Lat":58.7,"Lon":13.111,"Elev":53.0},{"WMO":"024070","Name":"MALUNG A","Lat":60.6765,"Lon":13.7072,"Elev":306.0},{"WMO":"024080","Name":"BLOMSKOG","Lat":59.2213,"Lon":12.0754,"Elev":171.0},{"WMO":"024110","Name":"ARVIKA","Lat":59.6743,"Lon":12.6354,"Elev":66.0},{"WMO":"024130","Name":"BRATTMON","Lat":60.7569,"Lon":12.7723,"Elev":199.0},{"WMO":"024151","Name":"KARLSTAD SOL","Lat":59.3592,"Lon":13.4719,"Elev":46.0},{"WMO":"024180","Name":"KARLSTAD AP","Lat":59.445,"Lon":13.337,"Elev":107.0},{"WMO":"024230","Name":"SUNNE","Lat":59.8639,"Lon":13.1166,"Elev":109.0},{"WMO":"024260","Name":"GUSTAVSFORS","Lat":60.154,"Lon":13.802,"Elev":188.0},{"WMO":"024280","Name":"ATORP","Lat":59.1,"Lon":14.367,"Elev":105.0},{"WMO":"024286","Name":"TORSBY","Lat":60.158,"Lon":12.991,"Elev":120.0},{"WMO":"024290","Name":"DAGLOSEN","Lat":59.6612,"Lon":14.1803,"Elev":133.0},{"WMO":"024310","Name":"KLOTEN","Lat":59.8703,"Lon":15.2522,"Elev":289.0},{"WMO":"024320","Name":"OREBRO","Lat":59.229,"Lon":15.046,"Elev":53.0},{"WMO":"024350","Name":"DALA","Lat":60.429,"Lon":15.501,"Elev":150.0},{"WMO":"024400","Name":"AMOT","Lat":60.9614,"Lon":16.4279,"Elev":162.0},{"WMO":"024410","Name":"MORA SILJIAN","Lat":60.9601,"Lon":14.5041,"Elev":197.0},{"WMO":"024430","Name":"ENKOPING","Lat":59.656,"Lon":17.112,"Elev":26.0},{"WMO":"024440","Name":"FOLKARNA","Lat":60.167,"Lon":16.317,"Elev":70.0},{"WMO":"024460","Name":"STOCKHOLM VASTERAS","Lat":59.589,"Lon":16.634,"Elev":6.0},{"WMO":"024490","Name":"ESKILSTUNA","Lat":59.3825,"Lon":16.4522,"Elev":12.0},{"WMO":"024500","Name":"EGGEGRUND","Lat":60.73,"Lon":17.558,"Elev":4.0},{"WMO":"024520","Name":"KILSBERGEN-SUTTARBODA","Lat":59.2996,"Lon":14.8956,"Elev":219.0},{"WMO":"024530","Name":"GAVLE","Lat":60.7161,"Lon":17.1607,"Elev":16.0},{"WMO":"024560","Name":"FILM","Lat":60.2358,"Lon":17.9043,"Elev":35.0},{"WMO":"024580","Name":"UPPSALA","Lat":59.897,"Lon":17.589,"Elev":21.0},{"WMO":"024600","Name":"STOCKHOLM ARLANDA","Lat":59.627,"Lon":17.954,"Elev":42.0},{"WMO":"024621","Name":"UPPSALA UNIVERSITY","Lat":59.867,"Lon":17.633,"Elev":13.0},{"WMO":"024640","Name":"STOCKHOLMN BROMMA","Lat":59.354,"Lon":17.942,"Elev":14.0},{"WMO":"024680","Name":"STORA SPANSBERGET","Lat":60.382,"Lon":15.137,"Elev":493.0},{"WMO":"024690","Name":"TULLINGE","Lat":59.1785,"Lon":17.9093,"Elev":45.0},{"WMO":"024720","Name":"SKEPPMORA","Lat":60.1228,"Lon":15.1228,"Elev":240.0},{"WMO":"024740","Name":"SINGO","Lat":60.167,"Lon":18.75,"Elev":14.0},{"WMO":"024760","Name":"FLODA","Lat":59.0558,"Lon":16.3944,"Elev":33.0},{"WMO":"024810","Name":"SALA","Lat":59.9093,"Lon":16.6843,"Elev":58.0},{"WMO":"024820","Name":"KERSTINBO","Lat":60.2683,"Lon":16.9738,"Elev":57.0},{"WMO":"024840","Name":"STOCKHOLM OBSERVATORIET","Lat":59.3415,"Lon":18.0546,"Elev":44.0},{"WMO":"024853","Name":"STOCKHOLMN SKAVSTA","Lat":58.789,"Lon":16.912,"Elev":43.0},{"WMO":"024860","Name":"ADELSO","Lat":59.3579,"Lon":17.5213,"Elev":6.0},{"WMO":"024870","Name":"SKARPO","Lat":59.345,"Lon":18.74,"Elev":22.0},{"WMO":"024880","Name":"ORSKAR","Lat":60.526,"Lon":18.373,"Elev":7.0},{"WMO":"024890","Name":"BERGA","Lat":59.069,"Lon":18.118,"Elev":4.0},{"WMO":"024900","Name":"SVANBERGA","Lat":59.8317,"Lon":18.6313,"Elev":16.0},{"WMO":"024930","Name":"SODERARM","Lat":59.753,"Lon":19.405,"Elev":14.0},{"WMO":"024960","Name":"SVENSKA HOGARNA","Lat":59.444,"Lon":19.506,"Elev":12.0},{"WMO":"025000","Name":"NORDKOSTER","Lat":58.892,"Lon":11.004,"Elev":35.0},{"WMO":"025010","Name":"VADEROARNA","Lat":58.576,"Lon":11.066,"Elev":24.0},{"WMO":"025050","Name":"MASESKAR","Lat":58.0938,"Lon":11.3318,"Elev":15.0},{"WMO":"025070","Name":"HUD","Lat":58.6608,"Lon":11.4178,"Elev":95.0},{"WMO":"025104","Name":"TROLLHATTAN VANERSBORG","Lat":58.318,"Lon":12.345,"Elev":42.0},{"WMO":"025120","Name":"GOTEBORG SAVE","Lat":57.775,"Lon":11.87,"Elev":18.0},{"WMO":"025130","Name":"GOTEBORG","Lat":57.7156,"Lon":11.9924,"Elev":3.0},{"WMO":"025150","Name":"TORPABRON","Lat":58.1997,"Lon":12.1541,"Elev":17.0},{"WMO":"025160","Name":"VINGA","Lat":57.6322,"Lon":11.6048,"Elev":18.0},{"WMO":"025180","Name":"NIDINGEN","Lat":57.3036,"Lon":11.9049,"Elev":4.0},{"WMO":"025200","Name":"SATENAS","Lat":58.436,"Lon":12.707,"Elev":54.0},{"WMO":"025210","Name":"BERGARUD","Lat":58.6003,"Lon":12.413,"Elev":59.0},{"WMO":"025260","Name":"GOTEBORG LANDVETTER","Lat":57.663,"Lon":12.28,"Elev":154.0},{"WMO":"025350","Name":"SKOVDE","Lat":58.456,"Lon":13.973,"Elev":99.0},{"WMO":"025360","Name":"RANGEDALA","Lat":57.7846,"Lon":13.1642,"Elev":299.0},{"WMO":"025390","Name":"ULLARED","Lat":57.1134,"Lon":12.7732,"Elev":122.0},{"WMO":"025400","Name":"KROPPEFJALL-GRANAN","Lat":58.6065,"Lon":12.1973,"Elev":174.0},{"WMO":"025420","Name":"HALLUM","Lat":58.3218,"Lon":13.0379,"Elev":71.0},{"WMO":"025440","Name":"KARLSBORG","Lat":58.517,"Lon":14.517,"Elev":94.0},{"WMO":"025450","Name":"AXSTAL","Lat":58.572,"Lon":14.557,"Elev":93.0},{"WMO":"025460","Name":"GARDSJO","Lat":58.8768,"Lon":14.3875,"Elev":212.0},{"WMO":"025480","Name":"VISINGSO","Lat":58.0948,"Lon":14.4058,"Elev":95.0},{"WMO":"025490","Name":"TOMTABACKEN","Lat":57.4981,"Lon":14.4645,"Elev":356.0},{"WMO":"025500","Name":"JONKOPING","Lat":57.758,"Lon":14.069,"Elev":226.0},{"WMO":"025520","Name":"MALEXANDER","Lat":58.072,"Lon":15.233,"Elev":197.0},{"WMO":"025530","Name":"KYMBO V","Lat":58.0794,"Lon":13.785,"Elev":222.0},{"WMO":"025540","Name":"KETTSTAKA","Lat":58.7162,"Lon":15.0271,"Elev":225.0},{"WMO":"025551","Name":"NASSJO","Lat":57.65,"Lon":14.7,"Elev":305.0},{"WMO":"025560","Name":"HAGSHULT","Lat":57.292,"Lon":14.137,"Elev":170.0},{"WMO":"025570","Name":"HORN","Lat":57.8861,"Lon":15.8623,"Elev":91.0},{"WMO":"025580","Name":"KOLMARDEN-STROMSFORS","Lat":58.689,"Lon":16.307,"Elev":155.0},{"WMO":"025590","Name":"GLADHAMMAR","Lat":57.7068,"Lon":16.4526,"Elev":35.0},{"WMO":"025610","Name":"KVARN","Lat":58.64,"Lon":15.434,"Elev":10.0},{"WMO":"025620","Name":"LINKOPING MALMEN","Lat":58.402,"Lon":15.526,"Elev":94.0},{"WMO":"025625","Name":"LINKOPING","Lat":58.406,"Lon":15.681,"Elev":52.0},{"WMO":"025630","Name":"HARSTENA","Lat":58.251,"Lon":17.011,"Elev":14.0},{"WMO":"025635","Name":"ANGELHOLM HELSINGBORG","Lat":56.298,"Lon":12.844,"Elev":18.0},{"WMO":"025650","Name":"HULTSFRED","Lat":57.526,"Lon":15.823,"Elev":112.0},{"WMO":"025660","Name":"MALILLA","Lat":57.3845,"Lon":15.8009,"Elev":98.0},{"WMO":"025670","Name":"LANDSORT","Lat":58.7429,"Lon":17.8684,"Elev":20.0},{"WMO":"025700","Name":"NORRKOPING BRAVALLA","Lat":58.617,"Lon":16.117,"Elev":33.0},{"WMO":"025710","Name":"NORRKOPING KUNGSANGEN","Lat":58.586,"Lon":16.251,"Elev":10.0},{"WMO":"025740","Name":"NORRKOPING","Lat":58.583,"Lon":16.147,"Elev":42.0},{"WMO":"025750","Name":"OLANDS NORRA UDDE","Lat":57.3671,"Lon":17.0954,"Elev":3.0},{"WMO":"025870","Name":"FAROSUND AR","Lat":57.9165,"Lon":18.9533,"Elev":13.0},{"WMO":"025880","Name":"FARO ISLAND","Lat":57.96,"Lon":19.348,"Elev":8.0},{"WMO":"025890","Name":"GOTSKA SANDON","Lat":58.394,"Lon":19.194,"Elev":16.0},{"WMO":"025900","Name":"VISBY","Lat":57.661,"Lon":18.343,"Elev":42.0},{"WMO":"025950","Name":"ROMA","Lat":57.5438,"Lon":18.4253,"Elev":32.0},{"WMO":"025980","Name":"OSTERGARNSHOLM","Lat":57.441,"Lon":18.984,"Elev":8.0},{"WMO":"026020","Name":"HALLANDSASEN","Lat":56.404,"Lon":12.9436,"Elev":159.0},{"WMO":"026030","Name":"EFTRA-BROEN V","Lat":56.8625,"Lon":12.6628,"Elev":10.0},{"WMO":"026040","Name":"HALMSTAD","Lat":56.691,"Lon":12.924,"Elev":24.0},{"WMO":"026050","Name":"HALLANDS VADERO","Lat":56.4496,"Lon":12.5453,"Elev":10.0},{"WMO":"026060","Name":"KULLENS FYR","Lat":56.3007,"Lon":12.452,"Elev":72.0},{"WMO":"026090","Name":"RYNGE","Lat":55.4742,"Lon":13.6683,"Elev":50.0},{"WMO":"026110","Name":"HELSINGBORG","Lat":56.03,"Lon":12.765,"Elev":44.0},{"WMO":"026160","Name":"FALSTERBO","Lat":55.3813,"Lon":12.8158,"Elev":5.0},{"WMO":"026180","Name":"TORUP","Lat":56.9494,"Lon":13.0601,"Elev":130.0},{"WMO":"026220","Name":"LJUNGBY","Lat":56.8525,"Lon":13.8794,"Elev":148.0},{"WMO":"026230","Name":"HORBY","Lat":55.8633,"Lon":13.6662,"Elev":114.0},{"WMO":"026250","Name":"SKILLINGE","Lat":55.489,"Lon":14.3144,"Elev":4.0},{"WMO":"026260","Name":"OSBY","Lat":56.374,"Lon":13.938,"Elev":90.0},{"WMO":"026280","Name":"HANO","Lat":56.0137,"Lon":14.8462,"Elev":60.0},{"WMO":"026290","Name":"HASTVEDA","Lat":56.283,"Lon":13.933,"Elev":10.0},{"WMO":"026320","Name":"UTKLIPPAN","Lat":55.953,"Lon":15.703,"Elev":3.0},{"WMO":"026350","Name":"MALMO","Lat":55.5715,"Lon":13.0708,"Elev":21.0},{"WMO":"026360","Name":"MALMO AP","Lat":55.523,"Lon":13.379,"Elev":72.0},{"WMO":"026410","Name":"VAXJO AP","Lat":56.929,"Lon":14.728,"Elev":186.0},{"WMO":"026440","Name":"OLANDS SODRA UDDE","Lat":56.1977,"Lon":16.4005,"Elev":2.0},{"WMO":"026460","Name":"OLANDSBRON LAG","Lat":56.6669,"Lon":16.4608,"Elev":10.0},{"WMO":"026480","Name":"VAXJO","Lat":56.8463,"Lon":14.8296,"Elev":200.0},{"WMO":"026510","Name":"KRISTIANSTAD OSTERLEN","Lat":55.922,"Lon":14.086,"Elev":23.0},{"WMO":"026610","Name":"KOSTA","Lat":56.84,"Lon":15.47,"Elev":232.0},{"WMO":"026640","Name":"RONNEBY","Lat":56.267,"Lon":15.268,"Elev":58.0},{"WMO":"026660","Name":"UNGSKAR","Lat":56.041,"Lon":15.804,"Elev":3.0},{"WMO":"026670","Name":"KARLSKRONA-SODERSTJERNA","Lat":56.15,"Lon":15.583,"Elev":8.0},{"WMO":"026700","Name":"KALMAR OLAND","Lat":56.678,"Lon":16.292,"Elev":4.0},{"WMO":"026790","Name":"HOBURG FYR","Lat":56.9209,"Lon":18.1506,"Elev":39.0},{"WMO":"027010","Name":"KILPISJARVI SAANA","Lat":69.043,"Lon":20.851,"Elev":1009.0},{"WMO":"027020","Name":"INARI KAAMANEN","Lat":69.141,"Lon":27.266,"Elev":156.0},{"WMO":"027040","Name":"HATTULA LEPAA AWS","Lat":61.115,"Lon":24.324,"Elev":87.0},{"WMO":"027050","Name":"PELKOSENNIEMI PYHATUNTURI","Lat":67.022,"Lon":27.218,"Elev":488.0},{"WMO":"027060","Name":"LOHJA PORLA","Lat":60.244,"Lon":24.049,"Elev":37.0},{"WMO":"027080","Name":"KARVIA ALKKIA","Lat":62.183,"Lon":22.8,"Elev":161.0},{"WMO":"027100","Name":"VESANTO SONKARI","Lat":62.922,"Lon":26.425,"Elev":120.0},{"WMO":"027131","Name":"HAMEENLINNA LAMMI EVO","Lat":61.217,"Lon":25.133,"Elev":136.0},{"WMO":"027140","Name":"VAALA PELSO","Lat":64.5,"Lon":26.44,"Elev":114.0},{"WMO":"027170","Name":"KITTILA POKKA","Lat":68.17,"Lon":25.783,"Elev":272.0},{"WMO":"027180","Name":"PUUMALA KK URHEILUKENTTA","Lat":61.5225,"Lon":28.185,"Elev":98.0},{"WMO":"027190","Name":"SODANKYLA KOKKA","Lat":67.821,"Lon":27.746,"Elev":240.0},{"WMO":"027200","Name":"KITTILA","Lat":67.696,"Lon":24.858,"Elev":196.0},{"WMO":"027210","Name":"KOKKOLA TANKAR","Lat":63.951,"Lon":22.844,"Elev":6.0},{"WMO":"027220","Name":"INARI SAARISELKA","Lat":68.415,"Lon":27.4133,"Elev":302.0},{"WMO":"027231","Name":"KITTILA LEVITUNTURI","Lat":67.7847,"Lon":24.8531,"Elev":200.0},{"WMO":"027240","Name":"LUMPARLAND LANGNAS HARBOUR","Lat":60.1158,"Lon":20.2978,"Elev":13.0},{"WMO":"027250","Name":"HALSUA KANALA PUROLA","Lat":63.446,"Lon":24.444,"Elev":153.0},{"WMO":"027260","Name":"ENONTEKIO NAKKALA","Lat":68.6031,"Lon":23.5761,"Elev":374.0},{"WMO":"027270","Name":"ASIKKALA PULKKILANHARJU","Lat":61.2653,"Lon":25.5203,"Elev":76.0},{"WMO":"027320","Name":"KUOPIO RITONIEMI","Lat":62.799,"Lon":27.905,"Elev":87.0},{"WMO":"027330","Name":"LAPPEENRANTA KONNUNSUO","Lat":61.039,"Lon":28.564,"Elev":46.0},{"WMO":"027340","Name":"PARIKKALA KOITSANLAHTI","Lat":61.445,"Lon":29.461,"Elev":75.0},{"WMO":"027350","Name":"VIRRAT AIJANNEVA","Lat":62.3278,"Lon":23.5422,"Elev":140.0},{"WMO":"027360","Name":"JUVA PARTALA","Lat":61.892,"Lon":27.885,"Elev":112.0},{"WMO":"027370","Name":"TOHOLAMPI LAITALA","Lat":63.8214,"Lon":24.1633,"Elev":85.0},{"WMO":"027380","Name":"PYHAJARVI OL OJAKYLA","Lat":63.7358,"Lon":25.7058,"Elev":153.0},{"WMO":"027390","Name":"SOTKAMO KUOLANIEMI","Lat":64.112,"Lon":28.336,"Elev":163.0},{"WMO":"027410","Name":"JOMLABY","Lat":60.178,"Lon":19.986,"Elev":11.0},{"WMO":"027430","Name":"KEMIONSAARI VANO","Lat":59.869,"Lon":22.193,"Elev":8.0},{"WMO":"027440","Name":"TAMPERE SATAKUNNANKATU","Lat":61.501,"Lon":23.765,"Elev":92.0},{"WMO":"027450","Name":"SALLA NARUSKA","Lat":67.162,"Lon":29.178,"Elev":215.0},{"WMO":"027460","Name":"HANKO TULLINIEMI","Lat":59.809,"Lon":22.916,"Elev":28.0},{"WMO":"027470","Name":"TURKU RAJAKARI","Lat":60.378,"Lon":22.096,"Elev":6.0},{"WMO":"027480","Name":"JOROINEN VARKAUS","Lat":62.174,"Lon":27.86,"Elev":87.0},{"WMO":"027500","Name":"HANKO TVARMINNE","Lat":59.8438,"Lon":23.2485,"Elev":3.0},{"WMO":"027510","Name":"PORI TAHKOLUOTO HARBOUR","Lat":61.63,"Lon":21.376,"Elev":5.0},{"WMO":"027520","Name":"KRISTIINANKAUPUNKI FYR","Lat":62.2036,"Lon":21.1697,"Elev":22.0},{"WMO":"027540","Name":"HAMEENLINNA KATINEN","Lat":60.9992,"Lon":24.4917,"Elev":85.0},{"WMO":"027550","Name":"YLIVIESKA","Lat":64.05,"Lon":24.725,"Elev":76.0},{"WMO":"027560","Name":"SALO KARKKA","Lat":60.374,"Lon":23.113,"Elev":2.0},{"WMO":"027570","Name":"RAASEPORI JUSSARO","Lat":59.821,"Lon":23.576,"Elev":23.0},{"WMO":"027580","Name":"VIHTI MAASOJA","Lat":60.419,"Lon":24.399,"Elev":44.0},{"WMO":"027590","Name":"PORVOO HARABACKA","Lat":60.3917,"Lon":25.6072,"Elev":24.0},{"WMO":"027600","Name":"KUUSAMO RUKA TALVIJARVI","Lat":66.172,"Lon":29.136,"Elev":307.0},{"WMO":"027610","Name":"RAUMA KYLMAPIHLAJA","Lat":61.1447,"Lon":21.3028,"Elev":29.0},{"WMO":"027630","Name":"TAMPERE HARMALA","Lat":61.4656,"Lon":23.7468,"Elev":86.0},{"WMO":"027640","Name":"KITTILA LOMPOLONVUOMA","Lat":67.998,"Lon":24.209,"Elev":270.0},{"WMO":"027650","Name":"LUHANKA JUDINSALO","Lat":61.704,"Lon":25.505,"Elev":83.0},{"WMO":"027660","Name":"ILOMANTSI POTSONVAARA","Lat":63.142,"Lon":31.044,"Elev":237.0},{"WMO":"027670","Name":"HAMEENLINNA LAMMI PAPPILA","Lat":61.0541,"Lon":25.0385,"Elev":125.0},{"WMO":"027680","Name":"HEINOLA ASEMANTAUS","Lat":61.2,"Lon":26.049,"Elev":92.0},{"WMO":"027690","Name":"KAUHAJOKI KUJA-KOKKO","Lat":62.4133,"Lon":22.1836,"Elev":93.0},{"WMO":"027700","Name":"JUUPAJOKI HYYTIALA","Lat":61.846,"Lon":24.287,"Elev":153.0},{"WMO":"027710","Name":"JOUTSA LEIVONMAKI SAVENAHO","Lat":61.879,"Lon":26.095,"Elev":146.0},{"WMO":"027720","Name":"RANTASALMI RUKKASLUOTO","Lat":62.063,"Lon":28.566,"Elev":80.0},{"WMO":"027730","Name":"TURKU ARTUKAINEN","Lat":60.4544,"Lon":22.1786,"Elev":9.0},{"WMO":"027770","Name":"SALO KIIKALA","Lat":60.464,"Lon":23.65,"Elev":117.0},{"WMO":"027780","Name":"SAVONLINNA PUNKAHARJU","Lat":61.8019,"Lon":29.3153,"Elev":80.0},{"WMO":"027800","Name":"KORSNAS BREDSKARET","Lat":62.9347,"Lon":21.1849,"Elev":3.0},{"WMO":"027810","Name":"STROMMINGSBADN","Lat":62.979,"Lon":20.74,"Elev":4.0},{"WMO":"027870","Name":"ALAJARVI MOKSY","Lat":63.089,"Lon":24.261,"Elev":171.0},{"WMO":"027880","Name":"KUOPIO MAANINKA","Lat":63.143,"Lon":27.313,"Elev":91.0},{"WMO":"027890","Name":"RAUTAVAARA YLA-LUOSTA","Lat":63.3781,"Lon":28.6617,"Elev":166.0},{"WMO":"027900","Name":"KUMLINGE KK","Lat":60.258,"Lon":20.747,"Elev":23.0},{"WMO":"027910","Name":"JUUKA NIEMELA","Lat":63.233,"Lon":29.234,"Elev":115.0},{"WMO":"027930","Name":"LIPERI TUISKAVANLUOTO","Lat":62.546,"Lon":29.668,"Elev":80.0},{"WMO":"027940","Name":"KIRKKONUMMI MAKILUOTO","Lat":59.92,"Lon":24.349,"Elev":2.0},{"WMO":"027950","Name":"HELSINKI HARMAJA","Lat":60.105,"Lon":24.976,"Elev":6.0},{"WMO":"027960","Name":"LIEKSA LAMPELA","Lat":63.321,"Lon":30.046,"Elev":98.0},{"WMO":"027970","Name":"HAAPAVEST MUSTIKKAMAKI","Lat":64.142,"Lon":25.423,"Elev":112.0},{"WMO":"027980","Name":"VALTIMO KK","Lat":63.667,"Lon":28.829,"Elev":115.0},{"WMO":"027990","Name":"KUHMO KALLIOJOKI","Lat":64.298,"Lon":30.166,"Elev":198.0},{"WMO":"028000","Name":"RAAHE NAHKIAINEN","Lat":64.617,"Lon":23.9,"Elev":24.0},{"WMO":"028010","Name":"ENONTEKIO KILPISJARVI","Lat":69.049,"Lon":20.791,"Elev":483.0},{"WMO":"028030","Name":"SIIKAJOKI REVONLAHTI","Lat":64.684,"Lon":25.088,"Elev":50.0},{"WMO":"028040","Name":"TAIVALKOSKI KK URHEILUTIE","Lat":65.575,"Lon":28.218,"Elev":197.0},{"WMO":"028050","Name":"UTSJOKI KEVO","Lat":69.756,"Lon":27.007,"Elev":106.0},{"WMO":"028070","Name":"IVALO","Lat":68.608,"Lon":27.414,"Elev":147.0},{"WMO":"028075","Name":"ENONTEKIO","Lat":68.363,"Lon":23.424,"Elev":306.0},{"WMO":"028110","Name":"KUUSAMO KIUTAKONGAS","Lat":66.37,"Lon":29.3119,"Elev":165.0},{"WMO":"028120","Name":"YLITORNIO MELTOSJARVI","Lat":66.529,"Lon":24.65,"Elev":93.0},{"WMO":"028130","Name":"ROVANIEMI APUKKA","Lat":66.579,"Lon":26.011,"Elev":107.0},{"WMO":"028140","Name":"KEMIJARVI","Lat":66.716,"Lon":27.159,"Elev":208.0},{"WMO":"028150","Name":"SAVUKOSKI KK","Lat":67.286,"Lon":28.177,"Elev":180.0},{"WMO":"028160","Name":"SODANKYLA VUOTSO","Lat":68.084,"Lon":27.185,"Elev":249.0},{"WMO":"028170","Name":"SAARISELKA KAUNISPAA","Lat":68.4337,"Lon":27.4431,"Elev":438.0},{"WMO":"028180","Name":"INARI RAJAJOOSEPPI","Lat":68.478,"Lon":28.301,"Elev":255.0},{"WMO":"028190","Name":"SALLA VARRIOTUNTURI","Lat":67.749,"Lon":29.611,"Elev":360.0},{"WMO":"028200","Name":"MUONIO LAUKUKERO","Lat":68.063,"Lon":24.033,"Elev":762.0},{"WMO":"028210","Name":"MUONIO SAMMALTUNTURI","Lat":67.973,"Lon":24.116,"Elev":566.0},{"WMO":"028230","Name":"MUONIO ALAMUONIO","Lat":67.9583,"Lon":23.6847,"Elev":253.0},{"WMO":"028240","Name":"KITTILA KENTTAROVA","Lat":67.987,"Lon":24.243,"Elev":350.0},{"WMO":"028250","Name":"UTSJOKI NUORGAM","Lat":70.0819,"Lon":27.8964,"Elev":22.0},{"WMO":"028270","Name":"INARI VAYLA","Lat":69.0722,"Lon":27.4925,"Elev":124.0},{"WMO":"028280","Name":"KAARINA YLTOINEN","Lat":60.387,"Lon":22.551,"Elev":5.0},{"WMO":"028290","Name":"HYVINKAA HYVINKAANKYLA","Lat":60.5958,"Lon":24.8031,"Elev":88.0},{"WMO":"028300","Name":"KOUVOLA ANJALA","Lat":60.696,"Lon":26.811,"Elev":33.0},{"WMO":"028310","Name":"VIROLAHTI KOIVUNIEMI","Lat":60.527,"Lon":27.673,"Elev":5.0},{"WMO":"028320","Name":"TOHMAJARVI KEMIE","Lat":62.235,"Lon":30.347,"Elev":90.0},{"WMO":"028330","Name":"SEINAJOKI PELMAA","Lat":62.9381,"Lon":22.4889,"Elev":32.0},{"WMO":"028340","Name":"VIEREMA KAARAKKALA","Lat":63.841,"Lon":27.221,"Elev":208.0},{"WMO":"028350","Name":"INARI NELLIM","Lat":68.849,"Lon":28.299,"Elev":123.0},{"WMO":"028360","Name":"SODANKYLA","Lat":67.367,"Lon":26.629,"Elev":184.0},{"WMO":"028440","Name":"PELLO","Lat":66.773,"Lon":23.963,"Elev":86.0},{"WMO":"028450","Name":"ROVANIEMI AP","Lat":66.562,"Lon":25.822,"Elev":194.0},{"WMO":"028470","Name":"ROVANIEMI RAUTATIEASEMA","Lat":66.498,"Lon":25.708,"Elev":82.0},{"WMO":"028490","Name":"SALLA KK MYLLYTIE","Lat":66.834,"Lon":28.674,"Elev":222.0},{"WMO":"028500","Name":"VARKAUS KOLSUANNIEMI","Lat":62.3222,"Lon":27.9078,"Elev":84.0},{"WMO":"028510","Name":"OULU OULUNSALO PELLONPAA","Lat":64.937,"Lon":25.373,"Elev":12.0},{"WMO":"028521","Name":"KOKKOLA HOLLIHAKA","Lat":63.8389,"Lon":23.0972,"Elev":8.0},{"WMO":"028570","Name":"INARI ANGELI LINTUPUOLISELKA","Lat":68.903,"Lon":25.736,"Elev":285.0},{"WMO":"028580","Name":"INARI KIRAKKAJARVI","Lat":69.582,"Lon":28.894,"Elev":106.0},{"WMO":"028590","Name":"PUOLANKA PALJAKKA","Lat":64.664,"Lon":28.057,"Elev":341.0},{"WMO":"028600","Name":"KITTILA KK","Lat":67.652,"Lon":24.902,"Elev":181.0},{"WMO":"028620","Name":"KEMI AJOS","Lat":65.673,"Lon":24.515,"Elev":3.0},{"WMO":"028630","Name":"KEMI 1 FYR","Lat":65.3853,"Lon":24.0961,"Elev":19.0},{"WMO":"028640","Name":"KEMI TORNIO","Lat":65.784,"Lon":24.579,"Elev":19.0},{"WMO":"028660","Name":"PUDASJARVI AP","Lat":65.414,"Lon":26.963,"Elev":120.0},{"WMO":"028670","Name":"PUDASJARVI","Lat":65.367,"Lon":27.017,"Elev":117.0},{"WMO":"028680","Name":"KUUSAMO RUKATUNTURI","Lat":66.1661,"Lon":29.1517,"Elev":363.0},{"WMO":"028690","Name":"KUUSAMO","Lat":65.996,"Lon":29.223,"Elev":264.0},{"WMO":"028720","Name":"RAAHE LAPALUOTO","Lat":64.6658,"Lon":24.4069,"Elev":2.0},{"WMO":"028730","Name":"HAILUOTO MARJANIEMI","Lat":65.04,"Lon":24.5615,"Elev":7.0},{"WMO":"028740","Name":"HAILUOTO KESKIKYLA","Lat":65.02,"Lon":24.727,"Elev":6.0},{"WMO":"028750","Name":"OULU AP","Lat":64.926,"Lon":25.373,"Elev":14.0},{"WMO":"028760","Name":"OULU VIHREASAARI","Lat":65.006,"Lon":25.393,"Elev":4.0},{"WMO":"028790","Name":"SUOMUSSALMI","Lat":64.9,"Lon":29.017,"Elev":224.0},{"WMO":"028800","Name":"TORNIO TORPPI","Lat":65.8472,"Lon":24.1736,"Elev":9.0},{"WMO":"028810","Name":"RANUA AF","Lat":65.977,"Lon":26.367,"Elev":163.0},{"WMO":"028820","Name":"KITTILA MATOROVA","Lat":68.0,"Lon":24.24,"Elev":342.0},{"WMO":"028830","Name":"KAJAANI PETAISENNISKA","Lat":64.217,"Lon":27.752,"Elev":162.0},{"WMO":"028880","Name":"INARI SEITALAASSA","Lat":69.049,"Lon":27.757,"Elev":122.0},{"WMO":"028890","Name":"SUOMUSSALMI PESIO","Lat":64.9314,"Lon":28.7467,"Elev":225.0},{"WMO":"028900","Name":"UTSJOKI KEVO KEVOJARVI","Lat":69.757,"Lon":27.012,"Elev":76.0},{"WMO":"028970","Name":"KAJAANI","Lat":64.283,"Lon":27.673,"Elev":134.0},{"WMO":"029010","Name":"MASSKAR","Lat":63.728,"Lon":22.584,"Elev":13.0},{"WMO":"029030","Name":"KARLEBY-JAKOBSTAD","Lat":63.718,"Lon":23.139,"Elev":25.0},{"WMO":"029050","Name":"NIVALA","Lat":63.917,"Lon":24.967,"Elev":81.0},{"WMO":"029060","Name":"KEMIONSAARI KEMIO","Lat":60.171,"Lon":22.758,"Elev":12.0},{"WMO":"029070","Name":"KALAJOKI ULKOKALLA","Lat":64.331,"Lon":23.446,"Elev":5.0},{"WMO":"029100","Name":"MUSTASAARI VALASSAARET","Lat":63.436,"Lon":21.064,"Elev":11.0},{"WMO":"029110","Name":"VAASA AP","Lat":63.059,"Lon":21.755,"Elev":8.0},{"WMO":"029130","Name":"KAUHAVA","Lat":63.12,"Lon":23.044,"Elev":46.0},{"WMO":"029150","Name":"VIITASAARI","Lat":63.0822,"Lon":25.8586,"Elev":132.0},{"WMO":"029170","Name":"KUOPIO","Lat":63.0083,"Lon":27.7994,"Elev":99.0},{"WMO":"029190","Name":"LAPPEENRANTA HIEKKAPAKKA","Lat":61.198,"Lon":28.473,"Elev":77.0},{"WMO":"029200","Name":"PIETARSAARI KALLAN","Lat":63.751,"Lon":22.523,"Elev":19.0},{"WMO":"029210","Name":"MOIKIPAA","Lat":62.888,"Lon":21.091,"Elev":13.0},{"WMO":"029240","Name":"AHTARI MYLLYMAKI","Lat":62.535,"Lon":24.217,"Elev":160.0},{"WMO":"029245","Name":"SEINAJOKI","Lat":62.692,"Lon":22.832,"Elev":92.0},{"WMO":"029260","Name":"PORI RAILWAY STATION","Lat":61.479,"Lon":21.783,"Elev":10.0},{"WMO":"029270","Name":"MULTIA KARHILA","Lat":62.511,"Lon":24.808,"Elev":228.0},{"WMO":"029280","Name":"JOENSUU LINNUNLAHTI","Lat":62.602,"Lon":29.727,"Elev":82.0},{"WMO":"029290","Name":"JOENSUU AP","Lat":62.66,"Lon":29.611,"Elev":121.0},{"WMO":"029310","Name":"KASKINEN SALGRUND","Lat":62.334,"Lon":21.191,"Elev":5.0},{"WMO":"029350","Name":"JYVASKYLA","Lat":62.398,"Lon":25.671,"Elev":140.0},{"WMO":"029370","Name":"KOKEMAKI TULKKILA","Lat":61.2531,"Lon":22.3461,"Elev":39.0},{"WMO":"029390","Name":"ILOMANTSI MEKRIJARVI","Lat":62.7697,"Lon":30.9753,"Elev":157.0},{"WMO":"029420","Name":"KANKAANPAA NIINISALO PUOLVOIM","Lat":61.839,"Lon":22.463,"Elev":125.0},{"WMO":"029430","Name":"SIILINKARI FYR","Lat":61.5176,"Lon":23.7539,"Elev":98.0},{"WMO":"029440","Name":"TAMPERE PIRKKALA","Lat":61.42,"Lon":23.617,"Elev":109.0},{"WMO":"029450","Name":"HALLI","Lat":61.855,"Lon":24.805,"Elev":145.0},{"WMO":"029460","Name":"JAMSA HALLI LENTOASEMANTIE","Lat":61.86,"Lon":24.815,"Elev":144.0},{"WMO":"029470","Name":"MIKKELI","Lat":61.689,"Lon":27.202,"Elev":100.0},{"WMO":"029480","Name":"SAVONLINNA","Lat":61.946,"Lon":28.932,"Elev":95.0},{"WMO":"029490","Name":"SOMERO SALKOLA","Lat":60.65,"Lon":23.8,"Elev":143.0},{"WMO":"029500","Name":"PARAINEN FAGERHOLM","Lat":60.112,"Lon":21.698,"Elev":5.0},{"WMO":"029520","Name":"PORI","Lat":61.467,"Lon":21.788,"Elev":13.0},{"WMO":"029550","Name":"KUOPIO SAVILAHTI","Lat":62.892,"Lon":27.633,"Elev":88.0},{"WMO":"029570","Name":"VAASA KLEMETTILA","Lat":63.0989,"Lon":21.6394,"Elev":9.0},{"WMO":"029580","Name":"LAPPEENRANTA","Lat":61.044,"Lon":28.151,"Elev":106.0},{"WMO":"029590","Name":"LAPPEENRANTA LEPOLA","Lat":61.057,"Lon":28.209,"Elev":104.0},{"WMO":"029610","Name":"KUUSKAJASKARI","Lat":61.133,"Lon":21.366,"Elev":10.0},{"WMO":"029630","Name":"JOKIOINEN","Lat":60.814,"Lon":23.497,"Elev":103.0},{"WMO":"029640","Name":"KUSTAVI ISOKARI","Lat":60.722,"Lon":21.027,"Elev":4.0},{"WMO":"029650","Name":"LAHTI LAUNE","Lat":60.9622,"Lon":25.6308,"Elev":79.0},{"WMO":"029660","Name":"UTTI","Lat":60.898,"Lon":26.949,"Elev":100.0},{"WMO":"029670","Name":"KOTKA HAAPASAARI","Lat":60.287,"Lon":27.185,"Elev":6.0},{"WMO":"029700","Name":"MARIEHAMN","Lat":60.125,"Lon":19.903,"Elev":6.0},{"WMO":"029710","Name":"JOMALA","Lat":60.15,"Lon":19.867,"Elev":10.0},{"WMO":"029720","Name":"TURKU AP","Lat":60.516,"Lon":22.279,"Elev":59.0},{"WMO":"029740","Name":"HELSINKI VANTAA","Lat":60.327,"Lon":24.957,"Elev":54.0},{"WMO":"029750","Name":"HELSINKI MALMI","Lat":60.255,"Lon":25.043,"Elev":17.0},{"WMO":"029760","Name":"KOTKA RANKKI","Lat":60.375,"Lon":26.959,"Elev":13.0},{"WMO":"029780","Name":"HELSINKI KAISANIEMI","Lat":60.1753,"Lon":24.9447,"Elev":4.0},{"WMO":"029790","Name":"KOKAR BOGSKAR","Lat":59.504,"Lon":20.347,"Elev":16.0},{"WMO":"029800","Name":"LEMLAND NYHAMN","Lat":59.9593,"Lon":19.9551,"Elev":10.0},{"WMO":"029810","Name":"PARAINEN UTO","Lat":59.784,"Lon":21.368,"Elev":7.0},{"WMO":"029820","Name":"HANKO RUSSARO","Lat":59.774,"Lon":22.952,"Elev":7.0},{"WMO":"029830","Name":"NURMIJARVI OBSERVATORY","Lat":60.509,"Lon":24.654,"Elev":113.0},{"WMO":"029840","Name":"INKOO BAGASKAR","Lat":59.931,"Lon":24.014,"Elev":12.0},{"WMO":"029851","Name":"ESPOO TAPIOLA","Lat":60.1781,"Lon":24.7872,"Elev":8.0},{"WMO":"029870","Name":"PORVOO KALLBADAGRUND","Lat":59.9853,"Lon":25.5986,"Elev":23.0},{"WMO":"029880","Name":"ISOSAARI","Lat":60.1,"Lon":25.051,"Elev":7.0},{"WMO":"029890","Name":"HELSINKI LIGHTHOUSE","Lat":59.949,"Lon":24.926,"Elev":20.0},{"WMO":"029910","Name":"PORVOO EMASALO","Lat":60.204,"Lon":25.626,"Elev":27.0},{"WMO":"029920","Name":"LOVIISA ORRENGRUND","Lat":60.275,"Lon":26.444,"Elev":4.0},{"WMO":"029930","Name":"HAMMARLAND MARKET","Lat":60.301,"Lon":19.131,"Elev":15.0},{"WMO":"029980","Name":"HELSINKI KUMPULA","Lat":60.2031,"Lon":24.9614,"Elev":25.0},{"WMO":"030010","Name":"MUCKLE FLUGGA","Lat":60.855,"Lon":-0.886,"Elev":53.0},{"WMO":"030020","Name":"BALTASOUND","Lat":60.7483,"Lon":-0.8556,"Elev":15.0},{"WMO":"030030","Name":"SUMBURGH","Lat":59.879,"Lon":-1.296,"Elev":6.0},{"WMO":"030040","Name":"COLLAFIRTH HILL","Lat":60.5336,"Lon":-1.391,"Elev":228.0},{"WMO":"030041","Name":"CASSLEY","Lat":58.168,"Lon":-4.727,"Elev":99.0},{"WMO":"030048","Name":"KINBRACE HATCHERY","Lat":58.23,"Lon":-3.922,"Elev":103.0},{"WMO":"030050","Name":"LERWICK","Lat":60.1392,"Lon":-1.1847,"Elev":84.0},{"WMO":"030060","Name":"SELLA NESS","Lat":60.447,"Lon":-1.278,"Elev":7.0},{"WMO":"030064","Name":"SCATSTA","Lat":60.433,"Lon":-1.296,"Elev":25.0},{"WMO":"030066","Name":"KINLOCHEWE","Lat":57.613,"Lon":-5.306,"Elev":25.0},{"WMO":"030070","Name":"MUCKLE HOLM","Lat":60.581,"Lon":-1.265,"Elev":20.0},{"WMO":"030080","Name":"FAIR ISLE","Lat":59.526,"Lon":-1.627,"Elev":57.0},{"WMO":"030100","Name":"SULE SKERRY","Lat":59.084,"Lon":-4.407,"Elev":12.0},{"WMO":"030110","Name":"NORTH RONA ISLAND","Lat":59.121,"Lon":-5.815,"Elev":103.0},{"WMO":"030111","Name":"DALWHINNIE NO 2","Lat":56.94,"Lon":-4.238,"Elev":351.0},{"WMO":"030112","Name":"LENTRAN","Lat":57.459,"Lon":-4.373,"Elev":146.0},{"WMO":"030114","Name":"DRUMNADROCHIT","Lat":57.328,"Lon":-4.486,"Elev":53.0},{"WMO":"030140","Name":"FOULA","Lat":60.112,"Lon":-2.064,"Elev":13.0},{"WMO":"030148","Name":"BALMORAL","Lat":57.037,"Lon":-3.22,"Elev":283.0},{"WMO":"030159","Name":"FYVIE CASTLE","Lat":57.443,"Lon":-2.39,"Elev":55.0},{"WMO":"030160","Name":"CRAIBSTONE","Lat":57.187,"Lon":-2.215,"Elev":102.0},{"WMO":"030170","Name":"KIRKWALL","Lat":58.9536,"Lon":-2.9014,"Elev":16.0},{"WMO":"030195","Name":"TYNDRUM NO 3","Lat":56.419,"Lon":-4.661,"Elev":168.0},{"WMO":"030220","Name":"BENBECULA","Lat":57.475,"Lon":-7.371,"Elev":6.0},{"WMO":"030230","Name":"SOUTH UIST RANGE","Lat":57.3575,"Lon":-7.385,"Elev":4.0},{"WMO":"030240","Name":"HYSKEIR LH","Lat":56.969,"Lon":-6.681,"Elev":10.0},{"WMO":"030250","Name":"BUTT OF LEWIS LH","Lat":58.515,"Lon":-6.261,"Elev":23.0},{"WMO":"030253","Name":"EDINBURGH RBG","Lat":55.967,"Lon":-3.212,"Elev":28.0},{"WMO":"030260","Name":"STORNOWAY","Lat":58.2136,"Lon":-6.3189,"Elev":8.0},{"WMO":"030268","Name":"WINCHCOMBE SUDELEY CASTLE","Lat":51.948,"Lon":-1.954,"Elev":112.0},{"WMO":"030279","Name":"GLENTRESS","Lat":55.646,"Lon":-3.139,"Elev":165.0},{"WMO":"030280","Name":"NEIST POINT","Lat":57.423,"Lon":-6.788,"Elev":21.0},{"WMO":"030289","Name":"KIELDER CASTLE","Lat":55.234,"Lon":-2.58,"Elev":201.0},{"WMO":"030310","Name":"LOCH GLASCARNOCH","Lat":57.725,"Lon":-4.8956,"Elev":264.0},{"WMO":"030311","Name":"MORPETH COCKLE PARK","Lat":55.212,"Lon":-1.685,"Elev":95.0},{"WMO":"030326","Name":"DURHAM","Lat":54.768,"Lon":-1.586,"Elev":102.0},{"WMO":"030339","Name":"BAINBRIDGE","Lat":54.308,"Lon":-2.101,"Elev":210.0},{"WMO":"030340","Name":"AULTBEA","Lat":57.8589,"Lon":-5.6328,"Elev":10.0},{"WMO":"030350","Name":"BARRA","Lat":57.025,"Lon":-7.449,"Elev":3.0},{"WMO":"030361","Name":"SCARBOROUGH","Lat":54.273,"Lon":-0.423,"Elev":110.0},{"WMO":"030367","Name":"HIGH MOWTHORPE","Lat":54.105,"Lon":-0.643,"Elev":175.0},{"WMO":"030370","Name":"SKYE LUSA","Lat":57.257,"Lon":-5.805,"Elev":18.0},{"WMO":"030380","Name":"FORT WILLIAM","Lat":56.829,"Lon":-5.076,"Elev":20.0},{"WMO":"030382","Name":"NORMANBY HALL","Lat":53.637,"Lon":-0.659,"Elev":47.0},{"WMO":"030390","Name":"BEALACH NA BA","Lat":57.4181,"Lon":-5.6886,"Elev":773.0},{"WMO":"030408","Name":"NORWICH WEATHER CENTRE","Lat":52.626,"Lon":1.298,"Elev":35.0},{"WMO":"030410","Name":"AONACH MOR","Lat":56.822,"Lon":-4.969,"Elev":1130.0},{"WMO":"030413","Name":"SANTON DOWNHAM","Lat":52.459,"Lon":0.671,"Elev":6.0},{"WMO":"030435","Name":"BROOMS BARN","Lat":52.261,"Lon":0.566,"Elev":75.0},{"WMO":"030436","Name":"CAVENDISH","Lat":52.091,"Lon":0.628,"Elev":55.0},{"WMO":"030440","Name":"ALTNAHARRA","Lat":58.2878,"Lon":-4.4425,"Elev":80.0},{"WMO":"030442","Name":"CHARSFIELD","Lat":52.163,"Lon":1.28,"Elev":49.0},{"WMO":"030455","Name":"CAMBRIDGE NIAB","Lat":52.245,"Lon":0.1,"Elev":26.0},{"WMO":"030456","Name":"MONKS WOOD","Lat":52.402,"Lon":-0.237,"Elev":41.0},{"WMO":"030458","Name":"WOBURN","Lat":52.014,"Lon":-0.596,"Elev":89.0},{"WMO":"030470","Name":"TULLOCH BRIDGE","Lat":56.8669,"Lon":-4.7081,"Elev":249.0},{"WMO":"030476","Name":"HOUGHTON HALL","Lat":52.824,"Lon":0.652,"Elev":65.0},{"WMO":"030481","Name":"HIGH BEACH","Lat":51.664,"Lon":0.041,"Elev":110.0},{"WMO":"030487","Name":"WRITTLE","Lat":51.7335,"Lon":0.4292,"Elev":32.0},{"WMO":"030490","Name":"CAPE WRATH LH","Lat":58.6253,"Lon":-4.9995,"Elev":112.0},{"WMO":"030500","Name":"FORT AUGUSTUS","Lat":57.133,"Lon":-4.717,"Elev":41.0},{"WMO":"030516","Name":"BRADFORD","Lat":53.8137,"Lon":-1.774,"Elev":134.0},{"WMO":"030525","Name":"SHEFFIELD WESTON PARK","Lat":53.3814,"Lon":-1.4914,"Elev":131.0},{"WMO":"030529","Name":"RYHILL","Lat":53.6284,"Lon":-1.3943,"Elev":78.0},{"WMO":"030534","Name":"BRAMHAM","Lat":53.8689,"Lon":-1.3188,"Elev":54.0},{"WMO":"030542","Name":"COTON-IN-THE-ELMS","Lat":52.7371,"Lon":-1.6412,"Elev":85.0},{"WMO":"030554","Name":"SUTTON BONINGTON","Lat":52.8365,"Lon":-1.2512,"Elev":43.0},{"WMO":"030570","Name":"FOYERS","Lat":57.261,"Lon":-4.484,"Elev":21.0},{"WMO":"030578","Name":"NORTHAMPTON MOULTON PARK","Lat":52.274,"Lon":-0.881,"Elev":127.0},{"WMO":"030580","Name":"INVERGORDON HARBOUR","Lat":57.687,"Lon":-4.167,"Elev":3.0},{"WMO":"030590","Name":"INVERNESS AP","Lat":57.543,"Lon":-4.048,"Elev":9.0},{"WMO":"030596","Name":"WELLESBOURNE","Lat":52.206,"Lon":-1.605,"Elev":47.0},{"WMO":"030607","Name":"SOUTH NEWINGTON","Lat":51.9981,"Lon":-1.4061,"Elev":105.0},{"WMO":"030620","Name":"TAIN RANGE","Lat":57.8189,"Lon":-3.9667,"Elev":4.0},{"WMO":"030622","Name":"KEELE","Lat":52.9989,"Lon":-2.2702,"Elev":179.0},{"WMO":"030630","Name":"AVIEMORE","Lat":57.2064,"Lon":-3.8283,"Elev":228.0},{"WMO":"030634","Name":"PENNERLEY","Lat":52.59,"Lon":-2.95,"Elev":357.0},{"WMO":"030650","Name":"CAIRNGORM SUMMIT","Lat":57.1163,"Lon":-3.6439,"Elev":1245.0},{"WMO":"030651","Name":"NEWPORT","Lat":52.7777,"Lon":-2.4277,"Elev":66.0},{"WMO":"030658","Name":"PERSHORE COLLEGE","Lat":52.1,"Lon":-2.06,"Elev":37.0},{"WMO":"030660","Name":"KINLOSS","Lat":57.6456,"Lon":-3.5636,"Elev":7.0},{"WMO":"030661","Name":"ASTWOOD BANK","Lat":52.248,"Lon":-1.935,"Elev":137.0},{"WMO":"030674","Name":"PRESTON WYNNE","Lat":52.125,"Lon":-2.638,"Elev":84.0},{"WMO":"030680","Name":"LOSSIEMOUTH","Lat":57.7114,"Lon":-3.3233,"Elev":7.0},{"WMO":"030691","Name":"WESTONBIRT","Lat":51.6069,"Lon":-2.2209,"Elev":135.0},{"WMO":"030696","Name":"HAMPSTEAD","Lat":51.561,"Lon":-0.18,"Elev":137.0},{"WMO":"030709","Name":"GRANTOWN-ON-SPEY","Lat":57.333,"Lon":-3.633,"Elev":335.0},{"WMO":"030712","Name":"HAMPTON WATER WORKS","Lat":51.4119,"Lon":-0.3781,"Elev":12.0},{"WMO":"030719","Name":"WISLEY","Lat":51.3108,"Lon":-0.4763,"Elev":38.0},{"WMO":"030720","Name":"CAIRNWELL","Lat":56.8795,"Lon":-3.4213,"Elev":933.0},{"WMO":"030723","Name":"KEW GARDENS","Lat":51.4819,"Lon":-0.2943,"Elev":6.0},{"WMO":"030742","Name":"GOUDHURST","Lat":51.0772,"Lon":0.4596,"Elev":85.0},{"WMO":"030750","Name":"WICK","Lat":58.4539,"Lon":-3.09,"Elev":38.0},{"WMO":"030751","Name":"RAVENSWORTH","Lat":54.473,"Lon":-1.782,"Elev":124.0},{"WMO":"030766","Name":"HERNE BAY NO 2","Lat":51.3584,"Lon":1.1351,"Elev":40.0},{"WMO":"030800","Name":"ABOYNE","Lat":57.0758,"Lon":-2.8411,"Elev":140.0},{"WMO":"030830","Name":"READING UNIVERSITY","Lat":51.4415,"Lon":-0.9378,"Elev":66.0},{"WMO":"030855","Name":"OTTERBOURNE WATER WORKS","Lat":51.009,"Lon":-1.335,"Elev":34.0},{"WMO":"030868","Name":"ALICE HOLT LODGE","Lat":51.1782,"Lon":-0.8501,"Elev":115.0},{"WMO":"030880","Name":"INVERBERVIE","Lat":56.8519,"Lon":-2.2658,"Elev":134.0},{"WMO":"030910","Name":"ABERDEEN DYCE","Lat":57.205,"Lon":-2.2053,"Elev":66.0},{"WMO":"030918","Name":"DUNSTAFFNAGE","Lat":56.45,"Lon":-5.44,"Elev":3.0},{"WMO":"030920","Name":"PETERHEAD HARBOUR","Lat":57.502,"Lon":-1.774,"Elev":15.0},{"WMO":"030940","Name":"ROSEHEARTY","Lat":57.698,"Lon":-2.123,"Elev":4.0},{"WMO":"030941","Name":"GREAT CUMBRAE MILLPORT","Lat":55.7493,"Lon":-4.9078,"Elev":5.0},{"WMO":"031000","Name":"TIREE","Lat":56.4999,"Lon":-6.8807,"Elev":12.0},{"WMO":"031005","Name":"AUCHINCRUIVE","Lat":55.477,"Lon":-4.565,"Elev":48.0},{"WMO":"031020","Name":"RINNS OF ISLAY LH","Lat":55.673,"Lon":-6.513,"Elev":23.0},{"WMO":"031035","Name":"THREAVE","Lat":54.9258,"Lon":-3.9498,"Elev":73.0},{"WMO":"031050","Name":"ISLAY PORT ELLEN","Lat":55.683,"Lon":-6.25,"Elev":17.0},{"WMO":"031067","Name":"BLENCATHRA","Lat":54.6196,"Lon":-3.0806,"Elev":250.0},{"WMO":"031073","Name":"NEWTON RIGG","Lat":54.67,"Lon":-2.788,"Elev":169.0},{"WMO":"031080","Name":"LEVENS HALL","Lat":54.259,"Lon":-2.778,"Elev":7.0},{"WMO":"031110","Name":"MACHRIHANISH CAMPBELTOWN","Lat":55.4408,"Lon":-5.6969,"Elev":10.0},{"WMO":"031111","Name":"PRESTON MOOR PARK","Lat":53.7742,"Lon":-2.7048,"Elev":33.0},{"WMO":"031112","Name":"MYERSCOUGH","Lat":53.8537,"Lon":-2.7668,"Elev":14.0},{"WMO":"031119","Name":"STONYHURST","Lat":53.845,"Lon":-2.47,"Elev":115.0},{"WMO":"031125","Name":"ROCHDALE","Lat":53.609,"Lon":-2.179,"Elev":110.0},{"WMO":"031132","Name":"NANTWICH REASEHEATH HALL","Lat":53.086,"Lon":-2.526,"Elev":40.0},{"WMO":"031140","Name":"OBAN","Lat":56.417,"Lon":-5.467,"Elev":4.0},{"WMO":"031166","Name":"PORTHMADOG","Lat":52.915,"Lon":-4.158,"Elev":7.0},{"WMO":"031180","Name":"CORSEWALL POINT LH","Lat":55.007,"Lon":-5.159,"Elev":15.0},{"WMO":"031204","Name":"SWYDDFFYNNON","Lat":52.2719,"Lon":-3.9159,"Elev":178.0},{"WMO":"031205","Name":"GOGERDDAN","Lat":52.4322,"Lon":-4.0206,"Elev":31.0},{"WMO":"031221","Name":"SCOLTON COUNTRY PARK","Lat":51.86,"Lon":-4.922,"Elev":75.0},{"WMO":"031223","Name":"WHITECHURCH","Lat":51.989,"Lon":-4.679,"Elev":129.0},{"WMO":"031238","Name":"LLYSDINAM","Lat":52.216,"Lon":-3.452,"Elev":196.0},{"WMO":"031249","Name":"LIBANUS","Lat":51.9243,"Lon":-3.4891,"Elev":331.0},{"WMO":"031272","Name":"CARDIFF BUTE PARK","Lat":51.488,"Lon":-3.189,"Elev":9.0},{"WMO":"031276","Name":"TREDEGAR BRYN BACH PARK NO 2","Lat":51.7841,"Lon":-3.2691,"Elev":360.0},{"WMO":"031311","Name":"MULL OF GALLOWAY","Lat":54.635,"Lon":-4.857,"Elev":78.0},{"WMO":"031320","Name":"WEST FREUGH","Lat":54.8592,"Lon":-4.9353,"Elev":12.0},{"WMO":"031326","Name":"SWANAGE","Lat":50.6136,"Lon":-1.9588,"Elev":10.0},{"WMO":"031340","Name":"GLASGOW BISHOPTON","Lat":55.9067,"Lon":-4.5325,"Elev":59.0},{"WMO":"031350","Name":"GLASGOW PRESTWICK","Lat":55.509,"Lon":-4.587,"Elev":20.0},{"WMO":"031352","Name":"NORTH WYKE","Lat":50.7686,"Lon":-3.9037,"Elev":177.0},{"WMO":"031360","Name":"GLASGOW PRESTWICK RNAS","Lat":55.5153,"Lon":-4.5847,"Elev":27.0},{"WMO":"031380","Name":"GREENOCK MRCC","Lat":55.962,"Lon":-4.794,"Elev":5.0},{"WMO":"031400","Name":"GLASGOW AP","Lat":55.872,"Lon":-4.433,"Elev":8.0},{"WMO":"031401","Name":"MAGNUS OIL PLATFORM","Lat":61.617,"Lon":1.3,"Elev":470.0},{"WMO":"031407","Name":"MARNOCK OIL PLATFORM","Lat":57.283,"Lon":1.65,"Elev":470.0},{"WMO":"031418","Name":"BUDE","Lat":50.829,"Lon":-4.546,"Elev":15.0},{"WMO":"031431","Name":"BANAGHER CAUGH HILL","Lat":54.886,"Lon":-6.966,"Elev":214.0},{"WMO":"031440","Name":"STRATHALLEN","Lat":56.3264,"Lon":-3.7286,"Elev":35.0},{"WMO":"031452","Name":"ALTNAHINCH FILTERS","Lat":55.048,"Lon":-6.255,"Elev":213.0},{"WMO":"031480","Name":"GLEN OGLE","Lat":56.4249,"Lon":-4.3232,"Elev":564.0},{"WMO":"031486","Name":"NEWRY CARNBANE","Lat":54.2061,"Lon":-6.3511,"Elev":8.0},{"WMO":"031488","Name":"KILLOWEN","Lat":54.077,"Lon":-6.184,"Elev":4.0},{"WMO":"031502","Name":"MURLOUGH","Lat":54.245,"Lon":-5.832,"Elev":12.0},{"WMO":"031504","Name":"KATESBRIDGE","Lat":54.2967,"Lon":-6.1112,"Elev":91.0},{"WMO":"031507","Name":"STORMONT CASTLE","Lat":54.603,"Lon":-5.83,"Elev":56.0},{"WMO":"031517","Name":"BALLYWATTICOCK","Lat":54.572,"Lon":-5.657,"Elev":6.0},{"WMO":"031520","Name":"SALSBURGH","Lat":55.861,"Lon":-3.875,"Elev":277.0},{"WMO":"031523","Name":"HELENS BAY","Lat":54.669,"Lon":-5.748,"Elev":43.0},{"WMO":"031529","Name":"MARKET BOSWORTH BOSWORTH PARK","Lat":52.623,"Lon":-1.396,"Elev":129.0},{"WMO":"031530","Name":"DUNDRENNAN","Lat":54.8033,"Lon":-4.0081,"Elev":113.0},{"WMO":"031540","Name":"DUMFRIES DRUNGANS","Lat":55.054,"Lon":-3.645,"Elev":16.0},{"WMO":"031550","Name":"DRUMALBIN","Lat":55.6272,"Lon":-3.7361,"Elev":245.0},{"WMO":"031580","Name":"CHARTERHALL","Lat":55.7086,"Lon":-2.3847,"Elev":111.0},{"WMO":"031600","Name":"EDINBURGH AP","Lat":55.95,"Lon":-3.373,"Elev":41.0},{"WMO":"031620","Name":"ESKDALEMUIR","Lat":55.312,"Lon":-3.207,"Elev":242.0},{"WMO":"031650","Name":"SPADEADAM","Lat":55.0503,"Lon":-2.5544,"Elev":325.0},{"WMO":"031660","Name":"EDINBURGH GOGARBANK","Lat":55.9283,"Lon":-3.3444,"Elev":57.0},{"WMO":"031671","Name":"BASS ROCK","Lat":56.076,"Lon":-2.641,"Elev":38.0},{"WMO":"031710","Name":"LEUCHARS","Lat":56.377,"Lon":-2.863,"Elev":12.0},{"WMO":"031740","Name":"FIFE NESS","Lat":56.279,"Lon":-2.587,"Elev":12.0},{"WMO":"031760","Name":"CARTERHOUSE","Lat":55.358,"Lon":-2.519,"Elev":308.0},{"WMO":"031850","Name":"ST ABB'S HEAD (LH)","Lat":55.916,"Lon":-2.139,"Elev":75.0},{"WMO":"032040","Name":"ISLE OF MAN","Lat":54.0853,"Lon":-4.6319,"Elev":17.0},{"WMO":"032080","Name":"POINT OF AYRE LH","Lat":54.417,"Lon":-4.367,"Elev":9.0},{"WMO":"032100","Name":"ST BEES HEAD","Lat":54.5178,"Lon":-3.6147,"Elev":123.0},{"WMO":"032120","Name":"KESWICK","Lat":54.6139,"Lon":-3.1567,"Elev":81.0},{"WMO":"032131","Name":"ESKMEALS","Lat":54.325,"Lon":-3.408,"Elev":8.0},{"WMO":"032140","Name":"WALNEY ISLAND","Lat":54.125,"Lon":-3.2581,"Elev":14.0},{"WMO":"032200","Name":"CARLISLE","Lat":54.9344,"Lon":-2.9636,"Elev":27.0},{"WMO":"032220","Name":"CARLISLE LAKE DISTRICT AP","Lat":54.938,"Lon":-2.809,"Elev":58.0},{"WMO":"032240","Name":"SPADEADAM NO2","Lat":55.0503,"Lon":-2.5544,"Elev":286.0},{"WMO":"032250","Name":"SHAP","Lat":54.5022,"Lon":-2.685,"Elev":255.0},{"WMO":"032260","Name":"WARCOP RANGE","Lat":54.5725,"Lon":-2.4131,"Elev":227.0},{"WMO":"032270","Name":"GREAT DUN FELL NO2","Lat":54.6842,"Lon":-2.4514,"Elev":847.0},{"WMO":"032300","Name":"REDESDALE CAMP","Lat":55.285,"Lon":-2.2794,"Elev":212.0},{"WMO":"032380","Name":"ALBEMARLE OUTSON","Lat":55.0197,"Lon":-1.8817,"Elev":146.0},{"WMO":"032400","Name":"BOULMER","Lat":55.4208,"Lon":-1.6014,"Elev":21.0},{"WMO":"032433","Name":"NEWCASTLE INTL","Lat":55.038,"Lon":-1.692,"Elev":81.0},{"WMO":"032460","Name":"NEWCASTLE WEATHER CENTRE","Lat":54.983,"Lon":-1.6,"Elev":52.0},{"WMO":"032570","Name":"LEEMING","Lat":54.2969,"Lon":-1.5331,"Elev":40.0},{"WMO":"032610","Name":"DISHFORTH","Lat":54.137,"Lon":-1.42,"Elev":36.0},{"WMO":"032620","Name":"TYNEMOUTH","Lat":55.017,"Lon":-1.417,"Elev":30.0},{"WMO":"032635","Name":"TEESSIDE INTL","Lat":54.509,"Lon":-1.429,"Elev":37.0},{"WMO":"032650","Name":"TOPCLIFFE","Lat":54.2047,"Lon":-1.39,"Elev":28.0},{"WMO":"032660","Name":"LINTON ON OUSE","Lat":54.0453,"Lon":-1.2511,"Elev":16.0},{"WMO":"032750","Name":"LOFTUS","Lat":54.5628,"Lon":-0.8636,"Elev":158.0},{"WMO":"032810","Name":"FYLINGDALES","Lat":54.359,"Lon":-0.672,"Elev":262.0},{"WMO":"032920","Name":"BRIDLINGTON MRSC","Lat":54.0939,"Lon":-0.1758,"Elev":15.0},{"WMO":"033010","Name":"MONA","Lat":53.26,"Lon":-4.3761,"Elev":62.0},{"WMO":"033020","Name":"VALLEY ANGLESEY","Lat":53.2525,"Lon":-4.5364,"Elev":11.0},{"WMO":"033050","Name":"CAPEL CURIG","Lat":53.0942,"Lon":-3.9414,"Elev":216.0},{"WMO":"033130","Name":"RHYL","Lat":53.2592,"Lon":-3.5089,"Elev":76.0},{"WMO":"033160","Name":"CROSBY","Lat":53.4972,"Lon":-3.0578,"Elev":9.0},{"WMO":"033180","Name":"BLACKPOOL","Lat":53.774,"Lon":-3.039,"Elev":10.0},{"WMO":"033210","Name":"HAWARDEN","Lat":53.175,"Lon":-2.987,"Elev":14.0},{"WMO":"033220","Name":"AUGHTON","Lat":53.55,"Lon":-2.917,"Elev":56.0},{"WMO":"033233","Name":"LIVERPOOL JOHN LENNON","Lat":53.334,"Lon":-2.85,"Elev":24.0},{"WMO":"033300","Name":"LEEK THORNCLIFFE","Lat":53.1278,"Lon":-1.9814,"Elev":299.0},{"WMO":"033340","Name":"MANCHESTER AP","Lat":53.354,"Lon":-2.275,"Elev":78.0},{"WMO":"033351","Name":"MANCHESTER WEATHER CENTRE","Lat":53.483,"Lon":-2.244,"Elev":69.0},{"WMO":"033380","Name":"CELLARHEAD","Lat":53.04,"Lon":-2.085,"Elev":228.0},{"WMO":"033420","Name":"HOLME MOSS","Lat":53.533,"Lon":-1.857,"Elev":524.0},{"WMO":"033440","Name":"BINGLEY","Lat":53.8113,"Lon":-1.8668,"Elev":267.0},{"WMO":"033450","Name":"WYCH CROSS","Lat":51.066,"Lon":0.033,"Elev":200.0},{"WMO":"033460","Name":"EMLEY MOOR","Lat":53.612,"Lon":-1.667,"Elev":267.0},{"WMO":"033463","Name":"LEEDS BRADFORD","Lat":53.866,"Lon":-1.661,"Elev":208.0},{"WMO":"033465","Name":"NEWQUAY CORNWALL","Lat":50.433,"Lon":-4.983,"Elev":119.0},{"WMO":"033470","Name":"LEEDS WEATHER CENTRE","Lat":53.801,"Lon":-1.561,"Elev":47.0},{"WMO":"033481","Name":"WOODFORD","Lat":53.339,"Lon":-2.155,"Elev":88.0},{"WMO":"033510","Name":"ROSTHERNE NO 2","Lat":53.36,"Lon":-2.3819,"Elev":35.0},{"WMO":"033540","Name":"NOTTINGHAM WATNALL","Lat":53.0056,"Lon":-1.2511,"Elev":117.0},{"WMO":"033550","Name":"CHURCH FENTON","Lat":53.834,"Lon":-1.196,"Elev":9.0},{"WMO":"033730","Name":"SCAMPTON","Lat":53.3069,"Lon":-0.5481,"Elev":62.0},{"WMO":"033735","Name":"HUMBERSIDE","Lat":53.574,"Lon":-0.351,"Elev":37.0},{"WMO":"033770","Name":"WADDINGTON","Lat":53.1753,"Lon":-0.5233,"Elev":70.0},{"WMO":"033790","Name":"CRANWELL","Lat":53.0311,"Lon":-0.5036,"Elev":66.0},{"WMO":"033820","Name":"LECONFIELD","Lat":53.8747,"Lon":-0.4417,"Elev":7.0},{"WMO":"033850","Name":"DONNA NOOK","Lat":53.475,"Lon":0.153,"Elev":8.0},{"WMO":"033870","Name":"EASINGTON","Lat":53.659,"Lon":0.116,"Elev":20.0},{"WMO":"033880","Name":"BINBROOK","Lat":53.445,"Lon":-0.202,"Elev":108.0},{"WMO":"033910","Name":"CONINGSBY","Lat":53.0939,"Lon":-0.1728,"Elev":8.0},{"WMO":"033920","Name":"WAINFLEET","Lat":53.0883,"Lon":0.2708,"Elev":5.0},{"WMO":"033961","Name":"SPURN POINT","Lat":53.5761,"Lon":0.1134,"Elev":7.0},{"WMO":"034001","Name":"BARDSEY ISLAND","Lat":52.75,"Lon":-4.799,"Elev":15.0},{"WMO":"034050","Name":"ABERDARON","Lat":52.7889,"Lon":-4.7414,"Elev":94.0},{"WMO":"034054","Name":"DONCASTER SHEFFIELD","Lat":53.475,"Lon":-1.004,"Elev":17.0},{"WMO":"034090","Name":"BALA","Lat":52.907,"Lon":-3.583,"Elev":163.0},{"WMO":"034100","Name":"LAKE VYRNWY","Lat":52.7572,"Lon":-3.4653,"Elev":359.0},{"WMO":"034102","Name":"COVENTRY COUNDON","Lat":52.4244,"Lon":-1.5365,"Elev":119.0},{"WMO":"034103","Name":"DERRYLIN CORNAHOULE","Lat":54.189,"Lon":-7.561,"Elev":68.0},{"WMO":"034140","Name":"SHAWBURY","Lat":52.7947,"Lon":-2.6647,"Elev":72.0},{"WMO":"034185","Name":"NOTTINGHAM EAST MIDLANDS","Lat":52.831,"Lon":-1.328,"Elev":93.0},{"WMO":"034530","Name":"COTTESMORE","Lat":52.7273,"Lon":-0.6559,"Elev":141.0},{"WMO":"034620","Name":"WITTERING","Lat":52.6114,"Lon":-0.4611,"Elev":83.0},{"WMO":"034690","Name":"HOLBEACH","Lat":52.8733,"Lon":0.1386,"Elev":3.0},{"WMO":"034820","Name":"MARHAM","Lat":52.6514,"Lon":0.5661,"Elev":23.0},{"WMO":"034880","Name":"WEYBOURNE","Lat":52.9494,"Lon":1.1225,"Elev":20.0},{"WMO":"034920","Name":"NORWICH INTL","Lat":52.676,"Lon":1.283,"Elev":36.0},{"WMO":"034940","Name":"CROMER","Lat":52.9335,"Lon":1.2909,"Elev":37.0},{"WMO":"034950","Name":"COLTISHALL","Lat":52.757,"Lon":1.351,"Elev":20.0},{"WMO":"034960","Name":"HEMSBY","Lat":52.683,"Lon":1.683,"Elev":14.0},{"WMO":"035020","Name":"ABERPORTH","Lat":52.139,"Lon":-4.571,"Elev":134.0},{"WMO":"035030","Name":"TRAWSGOED","Lat":52.3442,"Lon":-3.9481,"Elev":62.0},{"WMO":"035070","Name":"SENNYBRIDGE","Lat":52.0633,"Lon":-3.6147,"Elev":307.0},{"WMO":"035200","Name":"SHOBDON AF","Lat":52.2431,"Lon":-2.8858,"Elev":99.0},{"WMO":"035210","Name":"MADLEY","Lat":52.031,"Lon":-2.842,"Elev":78.0},{"WMO":"035220","Name":"HEREFORD CREDENHILL","Lat":52.08,"Lon":-2.8025,"Elev":76.0},{"WMO":"035270","Name":"GREAT MALVERN","Lat":52.121,"Lon":-2.306,"Elev":44.0},{"WMO":"035290","Name":"PERSHORE","Lat":52.1483,"Lon":-2.0411,"Elev":31.0},{"WMO":"035340","Name":"BIRMINGHAM","Lat":52.454,"Lon":-1.748,"Elev":100.0},{"WMO":"035350","Name":"COLESHILL","Lat":52.48,"Lon":-1.6908,"Elev":96.0},{"WMO":"035440","Name":"CHURCH LAWFORD","Lat":52.3589,"Lon":-1.3314,"Elev":106.0},{"WMO":"035600","Name":"BEDFORD","Lat":52.2269,"Lon":-0.4653,"Elev":84.0},{"WMO":"035620","Name":"ALCONBURY","Lat":52.367,"Lon":-0.217,"Elev":48.0},{"WMO":"035660","Name":"WYTON","Lat":52.357,"Lon":-0.108,"Elev":41.0},{"WMO":"035726","Name":"PATELEY BRIDGE RAVENS NEST","Lat":54.07,"Lon":-1.771,"Elev":259.0},{"WMO":"035770","Name":"MILDENHALL","Lat":52.367,"Lon":0.483,"Elev":10.0},{"WMO":"035827","Name":"BRAEMAR NO 2","Lat":57.0107,"Lon":-3.3973,"Elev":327.0},{"WMO":"035830","Name":"LAKENHEATH","Lat":52.417,"Lon":0.567,"Elev":10.0},{"WMO":"035860","Name":"HONINGTON","Lat":52.34,"Lon":0.77,"Elev":53.0},{"WMO":"035900","Name":"WATTISHAM","Lat":52.1239,"Lon":0.9575,"Elev":87.0},{"WMO":"035951","Name":"WOODBRIDGE RAF","Lat":52.083,"Lon":1.4,"Elev":29.0},{"WMO":"035963","Name":"BENTWATERS","Lat":52.133,"Lon":1.433,"Elev":26.0},{"WMO":"036030","Name":"BRAWDY","Lat":51.883,"Lon":-5.117,"Elev":111.0},{"WMO":"036040","Name":"MILFORD HAVEN CONSERVANCY","Lat":51.7089,"Lon":-5.0533,"Elev":44.0},{"WMO":"036050","Name":"PEMBRY SANDS","Lat":51.7144,"Lon":-4.3675,"Elev":7.0},{"WMO":"036080","Name":"PENDINE","Lat":51.745,"Lon":-4.509,"Elev":5.0},{"WMO":"036090","Name":"MUMBLES HEAD","Lat":51.5656,"Lon":-3.9817,"Elev":43.0},{"WMO":"036140","Name":"CILFYNYDD","Lat":51.633,"Lon":-3.3,"Elev":194.0},{"WMO":"036216","Name":"RESALLACH","Lat":58.063,"Lon":-5.016,"Elev":133.0},{"WMO":"036280","Name":"BRISTOL FILTON","Lat":51.522,"Lon":-2.577,"Elev":59.0},{"WMO":"036424","Name":"WINTERBOURNE NO2","Lat":52.4564,"Lon":-1.9276,"Elev":140.0},{"WMO":"036440","Name":"FAIRFORD","Lat":51.682,"Lon":-1.79,"Elev":87.0},{"WMO":"036451","Name":"CLUANIE INN NO 3","Lat":57.156,"Lon":-5.182,"Elev":223.0},{"WMO":"036470","Name":"LITTLE RISSINGTON","Lat":51.8606,"Lon":-1.6931,"Elev":210.0},{"WMO":"036490","Name":"BRIZE NORTON","Lat":51.7583,"Lon":-1.5781,"Elev":88.0},{"WMO":"036553","Name":"UPPER HEYFORD","Lat":51.933,"Lon":-1.25,"Elev":133.0},{"WMO":"036580","Name":"BENSON","Lat":51.6203,"Lon":-1.0986,"Elev":57.0},{"WMO":"036600","Name":"HIGH WYCOMBE","Lat":51.6817,"Lon":-0.8069,"Elev":205.0},{"WMO":"036720","Name":"NORTHOLT","Lat":51.5486,"Lon":-0.4169,"Elev":33.0},{"WMO":"036733","Name":"LONDON LUTON","Lat":51.875,"Lon":-0.368,"Elev":160.0},{"WMO":"036741","Name":"CHENIES","Lat":51.6897,"Lon":-0.5301,"Elev":139.0},{"WMO":"036769","Name":"WIGGONHOLT","Lat":50.938,"Lon":-0.494,"Elev":28.0},{"WMO":"036800","Name":"ROTHAMSTED","Lat":51.806,"Lon":-0.358,"Elev":128.0},{"WMO":"036830","Name":"LONDON STANSTED","Lat":51.885,"Lon":0.235,"Elev":106.0},{"WMO":"036840","Name":"ANDREWSFIELD","Lat":51.8961,"Lon":0.4506,"Elev":87.0},{"WMO":"036851","Name":"MORECAMBE NO 2","Lat":54.076,"Lon":-2.86,"Elev":7.0},{"WMO":"036904","Name":"FRITTENDEN","Lat":51.142,"Lon":0.596,"Elev":38.0},{"WMO":"036913","Name":"LONDON SOUTHEND","Lat":51.571,"Lon":0.696,"Elev":15.0},{"WMO":"036930","Name":"SHOEBURYNESS LANDWICK","Lat":51.5547,"Lon":0.8269,"Elev":3.0},{"WMO":"036937","Name":"GIANTS CAUSEWAY","Lat":55.234,"Lon":-6.512,"Elev":80.0},{"WMO":"036950","Name":"THAMES TOWER","Lat":51.773,"Lon":1.095,"Elev":8.0},{"WMO":"036960","Name":"WALTON-ON-THE-NAZE","Lat":51.851,"Lon":1.267,"Elev":5.0},{"WMO":"036986","Name":"HULL EAST PARK","Lat":53.766,"Lon":-0.298,"Elev":2.0},{"WMO":"037020","Name":"LUNDY ISLAND LH","Lat":51.162,"Lon":-4.656,"Elev":43.0},{"WMO":"037070","Name":"CHIVENOR","Lat":51.0892,"Lon":-4.1486,"Elev":8.0},{"WMO":"037093","Name":"STOWE","Lat":52.042,"Lon":-1.013,"Elev":145.0},{"WMO":"037100","Name":"LISCOMBE","Lat":51.0869,"Lon":-3.6089,"Elev":347.0},{"WMO":"037120","Name":"TIVINGTON","Lat":51.201,"Lon":-3.531,"Elev":83.0},{"WMO":"037150","Name":"CARDIFF","Lat":51.397,"Lon":-3.343,"Elev":67.0},{"WMO":"037160","Name":"ST ATHAN","Lat":51.4053,"Lon":-3.4408,"Elev":50.0},{"WMO":"037170","Name":"CARDIFF WEATHER CENTRE","Lat":51.478,"Lon":-3.179,"Elev":52.0},{"WMO":"037243","Name":"BRISTOL","Lat":51.383,"Lon":-2.719,"Elev":190.0},{"WMO":"037260","Name":"BRISTOL WEATHER CENTRE","Lat":51.453,"Lon":-2.6,"Elev":42.0},{"WMO":"037400","Name":"LYNEHAM","Lat":51.5031,"Lon":-1.9922,"Elev":145.0},{"WMO":"037430","Name":"LARKHILL","Lat":51.2017,"Lon":-1.8058,"Elev":133.0},{"WMO":"037460","Name":"BOSCOMBE DOWN","Lat":51.162,"Lon":-1.755,"Elev":124.0},{"WMO":"037490","Name":"MIDDLE WALLOP","Lat":51.1497,"Lon":-1.57,"Elev":91.0},{"WMO":"037610","Name":"ODIHAM","Lat":51.2389,"Lon":-0.945,"Elev":123.0},{"WMO":"037630","Name":"BRACKNELL BEAUFORT","Lat":51.383,"Lon":-0.783,"Elev":74.0},{"WMO":"037680","Name":"FARNBOROUGH","Lat":51.28,"Lon":-0.7725,"Elev":65.0},{"WMO":"037683","Name":"LONDON CITY AP","Lat":51.505,"Lon":0.055,"Elev":6.0},{"WMO":"037690","Name":"CHARLWOOD","Lat":51.144,"Lon":-0.2294,"Elev":68.0},{"WMO":"037700","Name":"LONDON ST JAMES PARK","Lat":51.5049,"Lon":-0.131,"Elev":5.0},{"WMO":"037720","Name":"LONDON HEATHROW","Lat":51.4792,"Lon":-0.4506,"Elev":25.0},{"WMO":"037760","Name":"LONDON GATWICK","Lat":51.148,"Lon":-0.19,"Elev":62.0},{"WMO":"037780","Name":"LONDON WC PENDEREL HOUSE","Lat":51.517,"Lon":-0.117,"Elev":23.0},{"WMO":"037790","Name":"LONDON WC CLERKENWELL","Lat":51.522,"Lon":-0.112,"Elev":39.0},{"WMO":"037801","Name":"REDHILL","Lat":51.215,"Lon":-0.137,"Elev":63.0},{"WMO":"037810","Name":"KENLEY AF","Lat":51.3039,"Lon":-0.0914,"Elev":170.0},{"WMO":"037840","Name":"GRAVESEND-BROADNESS","Lat":51.4645,"Lon":0.3113,"Elev":3.0},{"WMO":"037861","Name":"GRAVESEND","Lat":51.445,"Lon":0.374,"Elev":20.0},{"WMO":"037900","Name":"EAST MALLING","Lat":51.288,"Lon":0.449,"Elev":33.0},{"WMO":"037910","Name":"SHEERNESS","Lat":51.446,"Lon":0.746,"Elev":25.0},{"WMO":"037960","Name":"LANGDON BAY","Lat":51.134,"Lon":1.343,"Elev":117.0},{"WMO":"037970","Name":"MANSTON","Lat":51.3464,"Lon":1.3356,"Elev":50.0},{"WMO":"038030","Name":"SCILLY SAINT MARY'S","Lat":49.9144,"Lon":-6.2958,"Elev":31.0},{"WMO":"038060","Name":"GWENNAP HEAD","Lat":50.0369,"Lon":-5.6805,"Elev":63.0},{"WMO":"038080","Name":"CAMBORNE","Lat":50.2183,"Lon":-5.3275,"Elev":88.0},{"WMO":"038090","Name":"CULDROSE","Lat":50.0844,"Lon":-5.2572,"Elev":81.0},{"WMO":"038100","Name":"PENDENNIS POINT","Lat":50.1452,"Lon":-5.0454,"Elev":42.0},{"WMO":"038151","Name":"LIZARD LIGHTHOUSE","Lat":49.96,"Lon":-5.202,"Elev":55.0},{"WMO":"038230","Name":"CARDINHAM BODMIN","Lat":50.5022,"Lon":-4.6669,"Elev":199.0},{"WMO":"038270","Name":"PLYMOUTH MOUNT BATTEN","Lat":50.355,"Lon":-4.1211,"Elev":27.0},{"WMO":"038321","Name":"OKEHAMPTON EAST OKEMENT FARM","Lat":50.703,"Lon":-3.977,"Elev":408.0},{"WMO":"038390","Name":"EXETER AP","Lat":50.7371,"Lon":-3.4058,"Elev":31.0},{"WMO":"038400","Name":"DUNKESWELL","Lat":50.8603,"Lon":-3.2403,"Elev":253.0},{"WMO":"038530","Name":"YEOVILTON","Lat":51.0064,"Lon":-2.6428,"Elev":23.0},{"WMO":"038570","Name":"ISLE OF PORTLAND","Lat":50.5218,"Lon":-2.4573,"Elev":52.0},{"WMO":"038580","Name":"PORTLAND HP","Lat":50.565,"Lon":-2.449,"Elev":3.0},{"WMO":"038620","Name":"BOURNEMOUTH INTL","Lat":50.7794,"Lon":-1.8361,"Elev":12.0},{"WMO":"038650","Name":"SOUTHAMPTON","Lat":50.95,"Lon":-1.357,"Elev":13.0},{"WMO":"038660","Name":"WIGHT ST CATHERINES POINT","Lat":50.5756,"Lon":-1.2969,"Elev":24.0},{"WMO":"038720","Name":"THORNEY ISLAND","Lat":50.8147,"Lon":-0.9225,"Elev":3.0},{"WMO":"038740","Name":"LEE-ON-SOLENT","Lat":50.807,"Lon":-1.209,"Elev":13.0},{"WMO":"038760","Name":"BRIGHTON CITY","Lat":50.8361,"Lon":-0.2936,"Elev":2.0},{"WMO":"038800","Name":"NEWHAVEN LH","Lat":50.7818,"Lon":0.0571,"Elev":5.0},{"WMO":"038820","Name":"HERSTMONCEUX WEST END","Lat":50.891,"Lon":0.3165,"Elev":52.0},{"WMO":"038840","Name":"HERSTMONCEUX OBS","Lat":50.87,"Lon":0.3466,"Elev":17.0},{"WMO":"038874","Name":"LYDD AP","Lat":50.956,"Lon":0.939,"Elev":4.0},{"WMO":"038940","Name":"GUERNSEY","Lat":49.433,"Lon":-2.598,"Elev":102.0},{"WMO":"038950","Name":"JERSEY","Lat":49.21,"Lon":-2.194,"Elev":84.0},{"WMO":"039010","Name":"THOMASTOWN","Lat":54.329,"Lon":-7.594,"Elev":72.0},{"WMO":"039030","Name":"ENNISKILLEN","Lat":54.395,"Lon":-7.644,"Elev":47.0},{"WMO":"039040","Name":"CASTLEDERG","Lat":54.7071,"Lon":-7.5775,"Elev":50.0},{"WMO":"039070","Name":"MAGILLIGAN NO 2","Lat":55.1604,"Lon":-6.9492,"Elev":6.0},{"WMO":"039080","Name":"BALLYKELLY","Lat":55.057,"Lon":-7.007,"Elev":5.0},{"WMO":"039110","Name":"LOUGH FEA","Lat":54.7211,"Lon":-6.8147,"Elev":227.0},{"WMO":"039150","Name":"PORTGLENONE","Lat":54.8653,"Lon":-6.4583,"Elev":65.0},{"WMO":"039160","Name":"BALLYPATRICK FOREST","Lat":55.1806,"Lon":-6.1547,"Elev":156.0},{"WMO":"039170","Name":"BELFAST INTL","Lat":54.6638,"Lon":-6.2251,"Elev":82.0},{"WMO":"039192","Name":"KILLYLANE","Lat":54.817,"Lon":-6.005,"Elev":250.0},{"WMO":"039200","Name":"HILLSBOROUGH","Lat":54.485,"Lon":-6.097,"Elev":38.0},{"WMO":"039203","Name":"BRIDGEFOOT","Lat":54.649,"Lon":-3.459,"Elev":49.0},{"WMO":"039204","Name":"GRINGLEY-ON-THE-HILL","Lat":53.406,"Lon":-0.884,"Elev":68.0},{"WMO":"039211","Name":"HARRIS QUIDNISH","Lat":57.7801,"Lon":-6.8974,"Elev":13.0},{"WMO":"039230","Name":"GLENANNE NO2","Lat":54.2369,"Lon":-6.5039,"Elev":160.0},{"WMO":"039241","Name":"BELFAST CITY AP","Lat":54.618,"Lon":-5.873,"Elev":5.0},{"WMO":"039270","Name":"BANGOR HARBOUR","Lat":54.664,"Lon":-5.668,"Elev":43.0},{"WMO":"039280","Name":"LARNE","Lat":54.852,"Lon":-5.831,"Elev":3.0},{"WMO":"039311","Name":"TIBENHAM AIRFIELD","Lat":52.4566,"Lon":1.1624,"Elev":52.0},{"WMO":"039510","Name":"SHERKIN ISLAND","Lat":51.4767,"Lon":-9.4289,"Elev":21.0},{"WMO":"039520","Name":"ROCHES POINT","Lat":51.8,"Lon":-8.25,"Elev":41.0},{"WMO":"039530","Name":"VALENTIA OBSERVATORY","Lat":51.9383,"Lon":-10.241,"Elev":30.0},{"WMO":"039550","Name":"CORK","Lat":51.85,"Lon":-8.483,"Elev":153.0},{"WMO":"039560","Name":"JOHNSTOWN CASTLE","Lat":52.2978,"Lon":-6.4967,"Elev":53.0},{"WMO":"039570","Name":"ROSSLARE","Lat":52.25,"Lon":-6.333,"Elev":25.0},{"WMO":"039600","Name":"KILKENNY","Lat":52.666,"Lon":-7.266,"Elev":64.0},{"WMO":"039610","Name":"OAK PARK - CARLOW","Lat":52.85,"Lon":-6.9,"Elev":63.0},{"WMO":"039620","Name":"SHANNON","Lat":52.7,"Lon":-8.917,"Elev":14.0},{"WMO":"039630","Name":"MACE HEAD","Lat":53.3267,"Lon":-9.9043,"Elev":23.0},{"WMO":"039640","Name":"GALWAY","Lat":53.283,"Lon":-9.017,"Elev":21.0},{"WMO":"039650","Name":"BIRR","Lat":53.083,"Lon":-7.883,"Elev":72.0},{"WMO":"039660","Name":"GURTEEN","Lat":53.017,"Lon":-8.0,"Elev":76.0},{"WMO":"039670","Name":"CASEMENT","Lat":53.3,"Lon":-6.433,"Elev":97.0},{"WMO":"039690","Name":"DUBLIN AP","Lat":53.433,"Lon":-6.25,"Elev":74.0},{"WMO":"039700","Name":"CLAREMORRIS","Lat":53.717,"Lon":-8.983,"Elev":69.0},{"WMO":"039710","Name":"MULLINGAR","Lat":53.533,"Lon":-7.367,"Elev":100.0},{"WMO":"039730","Name":"IRELAND WEST AP KNOCK","Lat":53.91,"Lon":-8.818,"Elev":203.0},{"WMO":"039740","Name":"CLONES","Lat":54.183,"Lon":-7.233,"Elev":89.0},{"WMO":"039760","Name":"BELMULLET","Lat":54.2275,"Lon":-10.0069,"Elev":10.0},{"WMO":"039780","Name":"FINNER","Lat":54.4939,"Lon":-8.2431,"Elev":35.0},{"WMO":"039790","Name":"BALLYHAISE","Lat":54.05,"Lon":-7.3,"Elev":79.0},{"WMO":"039800","Name":"MALIN HEAD","Lat":55.367,"Lon":-7.333,"Elev":25.0},{"WMO":"040050","Name":"BOLUNGARVIK","Lat":66.161,"Lon":-23.2538,"Elev":27.0},{"WMO":"040130","Name":"STYKKISHOLMUR","Lat":65.074,"Lon":-22.7339,"Elev":8.0},{"WMO":"040171","Name":"AEDEY","Lat":66.101,"Lon":-22.659,"Elev":21.0},{"WMO":"040180","Name":"KEFLAVIK INTL","Lat":63.9747,"Lon":-22.5876,"Elev":47.0},{"WMO":"040300","Name":"REYKJAVIK","Lat":64.1275,"Lon":-21.9028,"Elev":52.0},{"WMO":"040381","Name":"EYRARBAKKI","Lat":63.8692,"Lon":-21.1603,"Elev":3.0},{"WMO":"040480","Name":"STORHOFDI","Lat":63.3994,"Lon":-20.2883,"Elev":124.0},{"WMO":"040530","Name":"BERGSTADIR","Lat":65.703,"Lon":-19.613,"Elev":43.0},{"WMO":"040630","Name":"AKUREYRI","Lat":65.6856,"Lon":-18.1002,"Elev":23.0},{"WMO":"040640","Name":"KIRKJUBAEJARKLAUSTUR","Lat":63.7931,"Lon":-18.012,"Elev":22.0},{"WMO":"040711","Name":"MANARBAKKI","Lat":66.1994,"Lon":-17.1026,"Elev":17.0},{"WMO":"040721","Name":"FAGURHOLSMYRI","Lat":63.8743,"Lon":-16.6364,"Elev":9.0},{"WMO":"040770","Name":"RAUFARHOFN","Lat":66.456,"Lon":-15.9527,"Elev":4.0},{"WMO":"040820","Name":"HOFN","Lat":64.2691,"Lon":-15.2135,"Elev":5.0},{"WMO":"040890","Name":"EGILSSTADIR","Lat":65.2762,"Lon":-14.4046,"Elev":23.0},{"WMO":"041011","Name":"BJARGTANGAR","Lat":65.5029,"Lon":-24.5312,"Elev":35.0},{"WMO":"041040","Name":"GUFUSKALAR","Lat":64.9041,"Lon":-23.9316,"Elev":7.0},{"WMO":"041091","Name":"THVERFJALL","Lat":66.0444,"Lon":-23.3074,"Elev":741.0},{"WMO":"041150","Name":"DYNJANDIHEIDI","Lat":65.7,"Lon":-23.083,"Elev":615.0},{"WMO":"041230","Name":"HORNBJARGSVITI","Lat":66.4107,"Lon":-22.3789,"Elev":22.0},{"WMO":"041241","Name":"STRAUMSVIK","Lat":64.0438,"Lon":-22.0404,"Elev":7.0},{"WMO":"041311","Name":"GJOGUR","Lat":65.9948,"Lon":-21.33,"Elev":31.0},{"WMO":"041370","Name":"AKUREYRI KROSSANESBRAUT","Lat":65.6961,"Lon":-18.1113,"Elev":31.0},{"WMO":"041450","Name":"BLONDUOS","Lat":65.658,"Lon":-20.2925,"Elev":22.0},{"WMO":"041460","Name":"VESTMANNAEYJABAER","Lat":63.4359,"Lon":-20.2758,"Elev":40.0},{"WMO":"041560","Name":"HVERAVELLIR","Lat":64.8668,"Lon":-19.5622,"Elev":641.0},{"WMO":"041650","Name":"GRIMSEY AP","Lat":66.5438,"Lon":-18.0169,"Elev":19.0},{"WMO":"041701","Name":"SKARDSFJORUVITI","Lat":63.5178,"Lon":-17.9786,"Elev":6.0},{"WMO":"041760","Name":"KARAHNJUKAR","Lat":65.1086,"Lon":-15.5297,"Elev":375.0},{"WMO":"041831","Name":"FONTUR","Lat":66.3783,"Lon":-14.5327,"Elev":44.0},{"WMO":"041961","Name":"KAMBANES","Lat":64.8012,"Lon":-13.8423,"Elev":30.0},{"WMO":"041970","Name":"DALATANGI","Lat":65.2681,"Lon":-13.5751,"Elev":10.0},{"WMO":"042020","Name":"PITUFFIK THULE AB","Lat":76.533,"Lon":-68.75,"Elev":77.0},{"WMO":"042022","Name":"JAKOBSHAVN LUFTHAVN","Lat":69.24,"Lon":-51.066,"Elev":31.0},{"WMO":"042030","Name":"KITSISSUT CAREY OEER","Lat":76.633,"Lon":-73.0,"Elev":11.0},{"WMO":"042050","Name":"QAANAAQ AP","Lat":77.486,"Lon":-69.376,"Elev":16.0},{"WMO":"042070","Name":"HALL LAND","Lat":81.683,"Lon":-59.933,"Elev":105.0},{"WMO":"042080","Name":"KITSISSORSUIT EDDERFUGLEOEER","Lat":74.033,"Lon":-57.817,"Elev":40.0},{"WMO":"042110","Name":"UPERNAVIK","Lat":72.783,"Lon":-56.133,"Elev":129.0},{"WMO":"042130","Name":"QAARSUT MITTARFIA","Lat":70.733,"Lon":-52.7,"Elev":89.0},{"WMO":"042140","Name":"NUUSSUAQ","Lat":70.683,"Lon":-54.617,"Elev":27.0},{"WMO":"042200","Name":"AASIAAT EGEDESMINDE","Lat":68.7081,"Lon":-52.8517,"Elev":41.0},{"WMO":"042280","Name":"KITSISSUT ATTU","Lat":67.784,"Lon":-53.965,"Elev":12.0},{"WMO":"042310","Name":"KANGERLUSSUAQ","Lat":67.017,"Lon":-50.717,"Elev":53.0},{"WMO":"042340","Name":"SISIMIUT HOLSTEINSBORG","Lat":66.951,"Lon":-53.72,"Elev":8.0},{"WMO":"042410","Name":"MANIITSOQ SUKKERTOPPEN","Lat":65.411,"Lon":-52.9325,"Elev":32.0},{"WMO":"042420","Name":"SIORALIK","Lat":65.013,"Lon":-52.529,"Elev":14.0},{"WMO":"042500","Name":"NUUK GODTHAAB","Lat":64.1833,"Lon":-51.7308,"Elev":84.0},{"WMO":"042530","Name":"UKIIVIK","Lat":62.578,"Lon":-50.406,"Elev":22.0},{"WMO":"042600","Name":"PAAMIUT FREDERIKSHAAB","Lat":62.015,"Lon":-49.671,"Elev":15.0},{"WMO":"042660","Name":"NUNARSUIT","Lat":60.764,"Lon":-48.454,"Elev":30.0},{"WMO":"042700","Name":"NARSARSUAQ","Lat":61.1581,"Lon":-45.4405,"Elev":34.0},{"WMO":"042720","Name":"QAQORTOQ JULIANEHAAB","Lat":60.716,"Lon":-46.043,"Elev":34.0},{"WMO":"042850","Name":"ANGISOQ","Lat":59.991,"Lon":-45.146,"Elev":16.0},{"WMO":"043010","Name":"KAP MORRIS JESUP","Lat":83.656,"Lon":-33.374,"Elev":3.0},{"WMO":"043120","Name":"STATION NORD","Lat":81.603,"Lon":-16.663,"Elev":36.0},{"WMO":"043130","Name":"HENRIK KROEYER HOLME","Lat":80.649,"Lon":-13.712,"Elev":10.0},{"WMO":"043200","Name":"DANMARKSHAVN","Lat":76.769,"Lon":-18.668,"Elev":12.0},{"WMO":"043300","Name":"DANEBORG AP","Lat":74.308,"Lon":-20.217,"Elev":44.0},{"WMO":"043390","Name":"ITTOQQORTOORMIIT SCORESBYSUND","Lat":70.4844,"Lon":-21.9511,"Elev":69.0},{"WMO":"043410","Name":"NERLERIT INAAT CONSTABLE PT","Lat":70.75,"Lon":-22.65,"Elev":10.0},{"WMO":"043510","Name":"APUTITEEQ","Lat":67.783,"Lon":-32.285,"Elev":23.0},{"WMO":"043600","Name":"TASIILAQ AMMASSALIK","Lat":65.6111,"Lon":-37.6367,"Elev":52.0},{"WMO":"043610","Name":"KULUSUK","Lat":65.5745,"Lon":-37.1325,"Elev":37.0},{"WMO":"043730","Name":"IKERMIIT","Lat":64.782,"Lon":-40.302,"Elev":80.0},{"WMO":"043820","Name":"IKERMIUARSUK","Lat":61.936,"Lon":-42.068,"Elev":39.0},{"WMO":"043900","Name":"IKERASASSUAQ PRINS CHRISTIAN","Lat":60.055,"Lon":-43.165,"Elev":19.0},{"WMO":"044160","Name":"SUMMIT CAMP","Lat":72.583,"Lon":-38.45,"Elev":3207.0},{"WMO":"060051","Name":"MYKINES","Lat":62.097,"Lon":-7.68,"Elev":100.0},{"WMO":"060090","Name":"AKRABERG FYR","Lat":61.3956,"Lon":-6.6817,"Elev":102.0},{"WMO":"060100","Name":"VAGAR AP","Lat":62.066,"Lon":-7.285,"Elev":85.0},{"WMO":"060110","Name":"TORSHAVN","Lat":62.0231,"Lon":-6.7647,"Elev":61.0},{"WMO":"060120","Name":"KIRKJA","Lat":62.319,"Lon":-6.321,"Elev":56.0},{"WMO":"060190","Name":"SILSTRUP","Lat":56.93,"Lon":8.6412,"Elev":41.0},{"WMO":"060241","Name":"THISTED","Lat":57.069,"Lon":8.705,"Elev":7.0},{"WMO":"060300","Name":"AALBORG AP","Lat":57.096,"Lon":9.851,"Elev":3.0},{"WMO":"060310","Name":"TYLSTRUP","Lat":57.185,"Lon":9.953,"Elev":13.0},{"WMO":"060320","Name":"STENHOEJ","Lat":57.383,"Lon":10.335,"Elev":55.0},{"WMO":"060410","Name":"SKAGEN FYR","Lat":57.7366,"Lon":10.6318,"Elev":5.0},{"WMO":"060430","Name":"FREDERIKSHAVN","Lat":57.4361,"Lon":10.5489,"Elev":3.0},{"WMO":"060481","Name":"HADSUND","Lat":56.717,"Lon":10.117,"Elev":2.0},{"WMO":"060490","Name":"HALD VEST","Lat":56.561,"Lon":10.093,"Elev":89.0},{"WMO":"060520","Name":"THYBOROEN","Lat":56.7067,"Lon":8.215,"Elev":4.0},{"WMO":"060560","Name":"MEJRUP","Lat":56.383,"Lon":8.667,"Elev":53.0},{"WMO":"060580","Name":"HVIDE SANDE","Lat":56.007,"Lon":8.141,"Elev":5.0},{"WMO":"060600","Name":"MIDTJYLLANDS  AP","Lat":56.293,"Lon":9.114,"Elev":52.0},{"WMO":"060650","Name":"AARS SYD","Lat":56.75,"Lon":9.5,"Elev":33.0},{"WMO":"060680","Name":"ISENVAD","Lat":56.1,"Lon":9.183,"Elev":62.0},{"WMO":"060690","Name":"FOULUM","Lat":56.4931,"Lon":9.5708,"Elev":58.0},{"WMO":"060700","Name":"AARHUS","Lat":56.3083,"Lon":10.6256,"Elev":25.0},{"WMO":"060710","Name":"FORNAES FYR","Lat":56.443,"Lon":10.957,"Elev":8.0},{"WMO":"060720","Name":"OEDUM","Lat":56.3,"Lon":10.133,"Elev":62.0},{"WMO":"060730","Name":"SLETTERHAGE FYR","Lat":56.1,"Lon":10.517,"Elev":6.0},{"WMO":"060740","Name":"AARHUS SYD","Lat":56.0803,"Lon":10.1353,"Elev":55.0},{"WMO":"060790","Name":"ANHOLT","Lat":56.7169,"Lon":11.5097,"Elev":4.0},{"WMO":"060800","Name":"ESBJERG AP","Lat":55.528,"Lon":8.563,"Elev":30.0},{"WMO":"060810","Name":"BLAAVANDSHUK FYR","Lat":55.5575,"Lon":8.0828,"Elev":18.0},{"WMO":"060820","Name":"BORRIS","Lat":55.967,"Lon":8.633,"Elev":25.0},{"WMO":"060890","Name":"ESBJERG SAEDENSTRAND","Lat":55.5,"Lon":8.4,"Elev":11.0},{"WMO":"060931","Name":"VESTER VEDSTED","Lat":55.291,"Lon":8.655,"Elev":3.0},{"WMO":"060960","Name":"ROEMOE JUVRE","Lat":55.1906,"Lon":8.56,"Elev":9.0},{"WMO":"061020","Name":"HORSENS BYGHOLM","Lat":55.867,"Lon":9.783,"Elev":24.0},{"WMO":"061040","Name":"BILLUND AP","Lat":55.738,"Lon":9.168,"Elev":75.0},{"WMO":"061080","Name":"KOLDING VAMDRUP AP","Lat":55.438,"Lon":9.334,"Elev":44.0},{"WMO":"061090","Name":"ASKOV","Lat":55.467,"Lon":9.117,"Elev":62.0},{"WMO":"061100","Name":"VOJENS AP","Lat":55.2253,"Lon":9.2633,"Elev":43.0},{"WMO":"061181","Name":"SONDERBORG AP","Lat":54.9615,"Lon":9.7929,"Elev":7.0},{"WMO":"061190","Name":"KEGNAES FYR","Lat":54.8528,"Lon":9.9881,"Elev":19.0},{"WMO":"061200","Name":"ODENSE AP","Lat":55.475,"Lon":10.331,"Elev":17.0},{"WMO":"061230","Name":"ASSENS TOROE","Lat":55.2444,"Lon":9.8883,"Elev":3.0},{"WMO":"061240","Name":"SYDFYNS TASINGE ISL","Lat":55.0144,"Lon":10.5694,"Elev":6.0},{"WMO":"061260","Name":"AARSLEV","Lat":55.317,"Lon":10.433,"Elev":51.0},{"WMO":"061350","Name":"FLAKKEBJERG","Lat":55.317,"Lon":11.383,"Elev":34.0},{"WMO":"061360","Name":"TYSTOFTE","Lat":55.2464,"Lon":11.3283,"Elev":12.0},{"WMO":"061380","Name":"LANGOE","Lat":54.821,"Lon":10.994,"Elev":4.0},{"WMO":"061391","Name":"KELDSNOR","Lat":54.731,"Lon":10.722,"Elev":8.0},{"WMO":"061410","Name":"ABED","Lat":54.8275,"Lon":11.3289,"Elev":9.0},{"WMO":"061430","Name":"LOLLAND FALSTER MARIBO","Lat":54.699,"Lon":11.44,"Elev":5.0},{"WMO":"061470","Name":"VINDEBAEK KYST","Lat":54.8789,"Lon":12.1842,"Elev":3.0},{"WMO":"061490","Name":"GEDSER","Lat":54.5686,"Lon":11.9436,"Elev":5.0},{"WMO":"061510","Name":"OMOE FYR","Lat":55.1592,"Lon":11.1347,"Elev":3.0},{"WMO":"061540","Name":"BRANDELEV","Lat":55.2,"Lon":11.867,"Elev":46.0},{"WMO":"061560","Name":"HOLBAEK","Lat":55.7358,"Lon":11.6033,"Elev":13.0},{"WMO":"061590","Name":"ROESNAES FYR","Lat":55.7436,"Lon":10.8694,"Elev":15.0},{"WMO":"061600","Name":"VAERLOSE","Lat":55.767,"Lon":12.343,"Elev":18.0},{"WMO":"061650","Name":"HESSELOE","Lat":56.196,"Lon":11.71,"Elev":18.0},{"WMO":"061680","Name":"NAKKEHOVED FYR","Lat":56.1193,"Lon":12.3429,"Elev":43.0},{"WMO":"061690","Name":"GNIBEN","Lat":56.0083,"Lon":11.2783,"Elev":12.0},{"WMO":"061700","Name":"ROSKILDE AP","Lat":55.587,"Lon":12.136,"Elev":45.0},{"WMO":"061740","Name":"TESSEBOELLE","Lat":55.3956,"Lon":12.1492,"Elev":22.0},{"WMO":"061790","Name":"MOEN FYR","Lat":54.9467,"Lon":12.5397,"Elev":17.0},{"WMO":"061800","Name":"KOEBENHAVNS AP","Lat":55.614,"Lon":12.645,"Elev":5.0},{"WMO":"061810","Name":"JAEGERSBORG","Lat":55.7664,"Lon":12.5264,"Elev":42.0},{"WMO":"061830","Name":"DROGDEN FYR","Lat":55.5365,"Lon":12.7115,"Elev":6.0},{"WMO":"061880","Name":"SJAELSMARK","Lat":55.883,"Lon":12.417,"Elev":40.0},{"WMO":"061900","Name":"BORNHOLM AP","Lat":55.0678,"Lon":14.7494,"Elev":16.0},{"WMO":"061910","Name":"CHRISTIANSO FYR","Lat":55.3206,"Lon":15.1869,"Elev":15.0},{"WMO":"061930","Name":"HAMMER ODDE FYR","Lat":55.2982,"Lon":14.7738,"Elev":9.0},{"WMO":"061970","Name":"NEXOE VEST","Lat":55.0558,"Lon":15.0953,"Elev":25.0},{"WMO":"062010","Name":"D15-FA-1","Lat":54.326,"Lon":2.936,"Elev":36.0},{"WMO":"062030","Name":"P11-B DE RUYTER","Lat":52.36,"Lon":3.342,"Elev":24.0},{"WMO":"062040","Name":"K14-FA-1C","Lat":53.269,"Lon":3.628,"Elev":27.0},{"WMO":"062050","Name":"A12-CPP HP","Lat":55.399,"Lon":3.81,"Elev":48.0},{"WMO":"062060","Name":"F16-A","Lat":54.117,"Lon":4.012,"Elev":28.0},{"WMO":"062070","Name":"L9-FF-1","Lat":53.614,"Lon":4.96,"Elev":30.0},{"WMO":"062080","Name":"AWG-1","Lat":53.4917,"Lon":5.9417,"Elev":27.0},{"WMO":"062100","Name":"VALKENBURG","Lat":52.1397,"Lon":4.4364,"Elev":1.0},{"WMO":"062110","Name":"J6-A","Lat":53.824,"Lon":2.945,"Elev":34.0},{"WMO":"062120","Name":"HOORN-A","Lat":52.918,"Lon":4.15,"Elev":41.0},{"WMO":"062250","Name":"IJMUIDEN","Lat":52.4622,"Lon":4.555,"Elev":4.0},{"WMO":"062350","Name":"DE KOOIJ AP","Lat":52.9269,"Lon":4.7811,"Elev":1.0},{"WMO":"062390","Name":"F3-FB-1","Lat":54.854,"Lon":4.696,"Elev":24.0},{"WMO":"062400","Name":"AMSTERDAM AP SCHIPHOL","Lat":52.317,"Lon":4.79,"Elev":-3.0},{"WMO":"062420","Name":"VLIELAND","Lat":53.24,"Lon":4.9208,"Elev":5.0},{"WMO":"062490","Name":"BERKHOUT","Lat":52.6428,"Lon":4.9789,"Elev":-3.0},{"WMO":"062500","Name":"WEST-TERSCHELLING","Lat":53.367,"Lon":5.217,"Elev":27.0},{"WMO":"062510","Name":"TERSCHELLING HOORN","Lat":53.3911,"Lon":5.3458,"Elev":2.0},{"WMO":"062520","Name":"K13-A","Lat":53.218,"Lon":3.22,"Elev":30.0},{"WMO":"062570","Name":"WIJK AAN ZEE","Lat":52.5053,"Lon":4.6029,"Elev":10.0},{"WMO":"062600","Name":"DE BILT","Lat":52.0989,"Lon":5.1797,"Elev":4.0},{"WMO":"062650","Name":"SOESTERBERG","Lat":52.127,"Lon":5.276,"Elev":20.0},{"WMO":"062670","Name":"STAVOREN","Lat":52.8967,"Lon":5.3833,"Elev":3.0},{"WMO":"062680","Name":"HOUTRIB","Lat":52.533,"Lon":5.433,"Elev":2.0},{"WMO":"062690","Name":"LELYSTAD AP","Lat":52.457,"Lon":5.52,"Elev":-4.0},{"WMO":"062700","Name":"LEEUWARDEN AB","Lat":53.223,"Lon":5.752,"Elev":1.0},{"WMO":"062730","Name":"MARKNESSE","Lat":52.7019,"Lon":5.8875,"Elev":-3.0},{"WMO":"062750","Name":"DEELEN AP","Lat":52.055,"Lon":5.872,"Elev":48.0},{"WMO":"062770","Name":"LAUWERSOOG","Lat":53.4117,"Lon":6.1992,"Elev":3.0},{"WMO":"062780","Name":"HEINO","Lat":52.434,"Lon":6.259,"Elev":5.0},{"WMO":"062790","Name":"HOOGEVEEN","Lat":52.7489,"Lon":6.5731,"Elev":16.0},{"WMO":"062800","Name":"GRONINGEN EELDE","Lat":53.1236,"Lon":6.5847,"Elev":5.0},{"WMO":"062830","Name":"HUPSEL","Lat":52.0678,"Lon":6.6567,"Elev":29.0},{"WMO":"062860","Name":"NIEUW BEERTA","Lat":53.1944,"Lon":7.1492,"Elev":0.0},{"WMO":"062900","Name":"TWENTE","Lat":52.2731,"Lon":6.8908,"Elev":35.0},{"WMO":"063100","Name":"VLISSINGEN","Lat":51.4414,"Lon":3.5958,"Elev":10.0},{"WMO":"063190","Name":"WESTDORPE","Lat":51.2247,"Lon":3.8611,"Elev":2.0},{"WMO":"063200","Name":"LICHTEILAND GOEREE","Lat":51.926,"Lon":3.67,"Elev":19.0},{"WMO":"063210","Name":"EURO PLATFORM","Lat":51.998,"Lon":3.275,"Elev":18.0},{"WMO":"063230","Name":"WILHELMINADORP","Lat":51.526,"Lon":3.8836,"Elev":1.0},{"WMO":"063300","Name":"HOEK VAN HOLLAND","Lat":51.9911,"Lon":4.1217,"Elev":14.0},{"WMO":"063400","Name":"WOENSDRECHT","Lat":51.4478,"Lon":4.3419,"Elev":19.0},{"WMO":"063440","Name":"ROTTERDAM THE HAGUE AP","Lat":51.961,"Lon":4.447,"Elev":-5.0},{"WMO":"063480","Name":"CABAUW TOWER","Lat":51.9703,"Lon":4.9263,"Elev":2.0},{"WMO":"063500","Name":"GILZE RIJEN","Lat":51.565,"Lon":4.9353,"Elev":15.0},{"WMO":"063560","Name":"HERWIJNEN","Lat":51.8581,"Lon":5.1452,"Elev":1.0},{"WMO":"063700","Name":"EINDHOVEN AP","Lat":51.4497,"Lon":5.3769,"Elev":23.0},{"WMO":"063750","Name":"VOLKEL AP","Lat":51.6586,"Lon":5.7067,"Elev":22.0},{"WMO":"063770","Name":"ELL-HALER","Lat":51.1967,"Lon":5.7625,"Elev":30.0},{"WMO":"063800","Name":"MAASTRICHT AACHEN AP","Lat":50.9053,"Lon":5.7619,"Elev":114.0},{"WMO":"063910","Name":"ARCEN","Lat":51.497,"Lon":6.196,"Elev":19.0},{"WMO":"064000","Name":"KOKSIJDE AP","Lat":51.0881,"Lon":2.6525,"Elev":6.0},{"WMO":"064070","Name":"OOSTENDE-BRUGES INTL","Lat":51.2003,"Lon":2.8872,"Elev":4.0},